stop_id,stop_name,stop_lat,stop_lon,stop_code,stop_desc,zone_id,stop_url,location_type,parent_station,wheelchair_boarding,stop_timezone,platform_code
0009f6b7-af3a-4efd-9f08-ea7c769a2f7f,Red Deer (Parkland Mall),52.285322,-113.813306,7RD,,,,,,,America/Edmonton,
0097384c-0597-4d05-80e0-f4a48dba9470,Johnstown Bus Stop,40.329825,-78.921849,JNW6,,,,,,,America/New_York,
00a18e5c-8da5-4f97-9000-590e19d0f2b5,New Orleans Bus Station,29.946167,-90.078613,NOD6,,,,,,,America/Chicago,
00e30200-338d-496a-994c-21fff6178ff7,Goshen (Goshen Travel Plaza),36.349499,-119.427755,GSJ6,,,,,,,America/Los_Angeles,
00e31726-290d-4687-9f4d-b7583b3cd8be,Sterling City (Stripes),31.83657,-100.99409,SRC6,,,,,,,America/Chicago,
00fc1ff4-6d4e-4e74-aa93-aba3b8d999a8,Redding Bus Station,40.583459,-122.3927,RDG6,,,,,,,America/Los_Angeles,
00fd2204-6b5f-4b52-a606-472f191e51a9,Ft Lauderdale Broward Park & Ride,26.12372,-80.170846,FTL6,,,,,,,America/New_York,
01284e68-b526-4198-9881-a13c5c79f65d,Texarkana (Travel Stop),33.39446,-94.09948,TEX6,,,,,,,America/Chicago,
01dd33ac-f031-4995-a1b5-3a0dfd169166,Gray (Terrabone Casino),29.67832,-90.780247,HMA6,,,,,,,America/Chicago,
023a4d1f-4bc1-4233-ad3c-49c8991d666c,Tijuana - Plaza El Mexicano,32.510223,-116.961998,TIJ6,,,,,,,America/Tijuana,
023cbda6-1beb-4a8f-9f01-a2577b5a6b5e,Hillsboro,32.009548,-97.093513,HLL6,,,,,,,America/Chicago,
02712dcc-a3cd-457e-a155-4163d44c3a5b,Sherman (Convenience Plus),33.633961,-96.615452,SHM6,,,,,,,America/Chicago,
02a38c5d-21ba-49cf-a07c-c52ee03a5894,"Wittenberg, WI",44.821846,-89.121084,WII6,,,,,,,America/Chicago,
02cce683-75f8-49b9-ac7f-a3dbf777b078,Biloxi Transit Center,30.398504,-88.889723,BLX6,,,,,,,America/Chicago,
0302baaf-8cbe-40e9-9689-18f9aa49c5d7,Greenville (Texaco),33.042627,-96.179434,GRV6,,,,,,,America/Chicago,
031209d1-924a-47b0-aab0-0a60e6d0c571,Portales (McDonald's),34.181704,-103.344817,PTL6,,,,,,,America/Denver,
03b5f19d-5387-4045-91bc-55d733d1173a,Bartow (Polk Courthouse Garage),27.898608,-81.844346,BAR6,,,,,,,America/New_York,
03c83ef9-b7e6-41db-a001-c10bad972c27,Key West Airport,24.552569,-81.756932,KWF6,,,,,,,America/New_York,
049a9447-2544-4f5a-b4dd-3470eb261c59,San Antonio Bus Station,29.428949,-98.491065,SNT6,,,,,,,America/Chicago,
04b6056e-3747-4337-9f79-9681a6f7eada,Ft Meade (Community Ctr),27.748501,-81.80155,FOT6,,,,,,,America/New_York,
04c636a7-1080-4ee2-aef4-104e0baeb301,Holland Bus Stop,42.74626,-86.072829,HLD6,,,,,,,America/New_York,
04cc74ba-16a3-42fb-a40b-ee6ccc6e97ae,Saint Louis (Lambert Field),38.742658,-90.367184,SOL6,,,,,,,America/Chicago,
04ceba4d-55bb-42c6-8f88-07ce99a9fd21,Sarnia (Bayside Terminal),42.97444,-82.40567,7SA,,,,,,,America/Toronto,
04ee9ae8-6cda-4981-ab0f-71599991b8cd,Greensburg Westmoreland Transit Ctr,40.302723,-79.546997,GSG6,,,,,,,America/New_York,
0586cfcb-d545-419d-b8ef-1ee2e369547c,Goerke's Corners Park & Ride,43.034772,-88.167725,5WG,,,,,,,America/Chicago,
05bfb90c-da6a-4f35-8072-a6747bd7ac20,Hood River (Mount Hood Railroad),45.70966,-121.512,HOD6,,,,,,,America/Los_Angeles,
05d4df58-54a9-4426-be5e-bebef9f22bee,Atlanta Bus Station,33.748253,-84.39657,ATD6,,,,,,,America/New_York,
05d755ca-42c5-416d-b87d-a1914cdb8342,New Castle Park & Ride,40.975621,-80.275099,NCW6,,,,,,,America/New_York,
06568323-f8fc-4789-97c1-fa413b4ada3d,Fort Myers Bus Stop,26.639095,-81.867209,FTM6,,,,,,,America/New_York,
06a69fac-ef20-4026-98c7-69216a013940,St Petersburg (PSTA Transit Center),27.835685,-82.685802,SPB6,,,,,,,America/New_York,
07342513-a9bf-4515-a417-61139ebcd68f,Ridgewood NJ (Southbound),40.991508,-74.096167,RDS6,,,,,,,America/New_York,
07837c33-19ae-4b2c-b280-09f5efcace3e,Plattsburgh,44.696057,-73.495589,PLB6,,,,,,,America/New_York,
078f6979-c4e3-44d0-97a7-af94dbf53931,Moline Center Station (Metrolink),41.506855,-90.520126,MOL6,,,,,,,America/Chicago,
088af99c-0284-46ca-bc49-a0c983ebfb88,Long Beach Bus Station,33.785574,-118.189026,LBH6,,,,,,,America/Los_Angeles,
08f7c0a9-f5e0-4e0c-adcd-e625a0743a70,Kenaston,51.50288,-106.277231,KNS6,,,,,,,America/Regina,
09442cbb-6d1a-462a-a88c-1ba6129e8c9f,Bellingham (WWU - Lincoln Creek Park & Ride),48.734651,-122.465887,1BH,,,,,,,America/Los_Angeles,
099411f9-2fc2-41d7-a66b-f2a93cf0d10d,City of Portland,43.653975,-70.277688,PVT6,,,,,,,America/New_York,
0a8ff10c-a602-441b-b2b5-3ff5dbeef777,Scranton,41.404111,-75.678389,6SR,,,,,,,America/New_York,
0a997460-d871-4ec6-a0bc-dde77536b0c3,Scranton Bus Station,41.41027,-75.67098,SCR6,,,,,,,America/New_York,
0ae12e7a-09b1-4ae0-b3dd-fc27c08dd192,Mason (Short Stop),30.75049,-99.23615,MOS6,,,,,,,America/Chicago,
0aee29a4-77a6-4bac-9a9b-544f97102957,Branford,29.954994,-82.926115,BFL6,,,,,,,America/New_York,
0b303dc4-4b16-466f-bca6-be42fee6f3a4,Santa Barbara Bus Stop,34.413554,-119.693269,SBR6,,,,,,,America/Los_Angeles,
0ba06d5d-5834-43d1-8860-6fded6f6f9e0,Cleveland Downtown (E 12th St),41.504431,-81.68717,CLV6,,,,,,,America/New_York,
0c22b800-0085-4509-9c37-4e9e1087e073,Dallas/Fort Worth International Airport,32.908111,-97.040472,2DF,,,,,,,America/Chicago,
0c411b18-dbcc-4bca-b6a4-f52d8a24270f,"Irvine (Crawford Hall - University of California, Irvine)",33.647829,-117.847356,0IR,,,,,,,America/Los_Angeles,
0c479ea4-34f9-4483-8f93-e6bc6f90626d,Port Elgin,44.423268,-81.398562,7PL,,,,,,,America/Toronto,
0c49237f-1194-4f02-8f63-78b93dc5d5a3,Thomasville Travel Center,30.870001,-83.999275,TMM6,,,,,,,America/New_York,
0c8d1ecb-4f3d-4577-9473-0eb1a4331e37,Salina (Super 8),38.783277,-97.61875,SKS6,,,,,,,America/Chicago,
0cd41c08-76c0-415d-bbcf-e325c468ed93,Cedar City (Sunoco),37.680765,-113.08163,CDT6,,,,,,,America/Denver,
0ce64428-1580-47d2-ae76-2bd23005c5a8,Alexander City (Barber Shop),32.94313,-85.9824,AXT6,,,,,,,America/Chicago,
0d0662ca-885b-46d2-bb97-1f657b30c4cf,New Bern (U Pick),35.11717,-77.07513,NBW6,,,,,,,America/New_York,
0d444f9d-a3f2-42b2-a0f6-0ded46ddc13b,Fort Pierce,27.417167,-80.381778,4FP,,,,,,,America/New_York,
0d74e7b5-0a07-4274-a95b-3d4838e59ddc,Seattle Tacoma Intl Airport,47.441795,-122.299233,SAP6,,,,,,,America/Los_Angeles,
0d9d5504-d11d-4f49-bcde-e07afac85482,"Calgary Int. Airport (Door 14, Bay 31)",51.130834,-114.006857,7YYC,,,,,,,America/Edmonton,
0e00c0fe-9f46-4f62-b385-ea1ab3575659,Hattiesburg,31.35358,-89.34395,HTB6,,,,,,,America/Chicago,
0e6b7185-b5b5-4be8-9d08-cd7d603e7507,Eloy (Love's),32.806323,-111.671521,CSG6,,,,,,,America/Phoenix,
0e7db49b-404a-475c-944f-1689c1326fe0,San Marcos (CARTS),29.876533,-97.941047,SMT6,,,,,,,America/Chicago,
0e880928-b37e-44ed-828b-039512e66259,Vancouver (Pacific Central Station),49.273278,-123.097889,VAN6,,,,,,,America/Vancouver,
0ebcb8ea-894c-43ba-bd34-1e0879c63467,Southern Pines (BP Gas Station),35.18244,-79.400342,SHP6,,,,,,,America/New_York,
0edad38b-8446-40ef-bab2-2e268e21dd84,Downtown Houston (Gray St.),29.75093,-95.37448,2HO,,,,,,,America/Chicago,
0eeefbfa-49a6-4ca4-9853-2025cde2657f,St Thomas,42.779021,-81.180843,7TH,,,,,,,America/Toronto,
0f3cca9f-b412-492c-bbba-80db6de97380,Lakeland Gow B Fields Park & Ride,28.083818,-81.968313,LKD6,,,,,,,America/New_York,
0f7c68f5-77df-46cb-950a-d498e8deb05b,Murfreesboro Bus Stop,35.84663,-86.398747,MFR6,,,,,,,America/Chicago,
101a6d2f-552d-4d2c-8979-aaaf5e3ee495,Sedona(ARCO),34.86446,-111.794912,SED6,,,,,,,America/Phoenix,
1024805c-c3f8-466d-9d9a-41b4e3c8a0c6,Wilmington Bus Station,39.737593,-75.551012,WIL6,,,,,,,America/New_York,
106b8e0a-8778-4952-b012-99c63da91be6,High Springs,29.875599,-82.539515,HSP6,,,,,,,America/New_York,
10949a97-d95d-4f8a-b501-8effe98e178f,Tempe (University Dr/Rural Rd),33.420693,-111.927285,UTP,,,,,,,America/Phoenix,
10a11d80-57b7-4716-ace3-884ecaff2d3c,Louisville Bus Station,38.248724,-85.772623,LUD6,,,,,,,America/New_York,
10b1b8a5-044e-4e36-8541-f9c2fdb284a0,Merced Bus Stop,37.301311,-120.487869,MCD6,,,,,,,America/Los_Angeles,
10bf5233-5e20-480d-98c4-c767bb0ffbd7,Lumberton,34.61808,-79.005875,LBB6,,,,,,,America/New_York,
10f66ac1-7146-4a73-96d1-85f2fcf57a91,Las Vegas Bus Terminal,36.080564,-115.193697,LVG6,,,,,,,America/Los_Angeles,
10f8f5e2-5c82-447b-b4b7-5fc2cdd702ee,Buffalo (Tiger Mart),31.44887,-96.077522,BFB6,,,,,,,America/Chicago,
11260e93-6369-4152-ab69-2ed15dc41798,Atlantic City (Resorts),39.36044,-74.4225,ACY6,,,,,,,America/New_York,
11e8034b-a3a2-4364-8cfc-1de429998b37,Sandusky Bus Stop,41.440615,-82.718598,SDD6,,,,,,,America/New_York,
122d580d-8d66-4978-a632-39585fddac27,Laramie (Petro Travel Center),41.328301,-105.619213,LAR6,,,,,,,America/Denver,
1262a524-984c-4d56-b01c-b18bfc51fa5a,Spring Hill (BP),28.476199,-82.488878,SPH6,,,,,,,America/New_York,
12a2c399-a17f-44e2-8d1f-7655f95c2689,Baltimore Downtown Bus Station,39.270959,-76.627224,BAL6,,,,,,,America/New_York,
131ffb41-a46e-4b1a-8eaf-c4ec332d692b,London (Downtown),42.980345,-81.250798,7LN,,,,,,,America/Toronto,
1326f4e5-b0c1-4953-9ad4-ad0c9c01e62a,Center Point (Mini Mart),29.950797,-99.041629,CNP6,,,,,,,America/Chicago,
138f9568-b680-4d9b-88cc-97cc7198ffa6,Edinboro (Eusga Campus CS),41.87196,-80.119,ENV6,,,,,,,America/New_York,
1502223d-b588-4652-8348-767bc899ff7d,Chamberlain (Esso),50.849529,-105.564091,CHB6,,,,,,,America/Regina,
1520f40a-197d-41e4-a5bb-43c2d8567654,Mcalester (Exxon),34.918546,-95.745864,MLC6,,,,,,,America/Chicago,
1556c308-2c66-489e-b9b3-9b1f656129f2,Harlingen Bus Station,26.19087,-97.71442,HGN6,,,,,,,America/Chicago,
1563b5c0-2423-45bf-80f9-bd9865f09f22,Washington (Texaco),33.73657,-82.73696,WAG6,,,,,,,America/New_York,
1579f414-3bba-493d-8cef-644f8697cc06,Hanover (Hanover Inn),43.702365,-72.288171,HAJ6,,,,,,,America/New_York,
15c58eff-5c8f-4146-95c0-cb9e1ccc3d85,Torreón (Terminal La Pequeña),25.53562447539488,-103.45832641935529,TCA8,,,,,,,America/Monterrey,
15d9f749-4bcb-4ec2-9927-e8ecc0ad6599,"Torrance, CA",33.842012,-118.329889,0RE,,,,,,,America/Los_Angeles,
167cc97f-d104-409b-b417-382ef8f4b3dc,Calgary (Whitehorn),51.086877,-113.983015,7CU,,,,,,,America/Edmonton,
1684b71e-f428-4470-83af-eac6dbd13110,Querétaro (Soriana Hiper la Capillla),20.578536,-100.418008,QQA8,,,,,,,America/Mexico_City,
1698ad38-f27a-49dd-90b9-52dad3c2f024,Blythe (Rocket Gas),33.603934,-114.60491,BTH6,,,,,,,America/Los_Angeles,
177720c7-60ae-432b-80ce-6d6c76adfd79,Salisbury (Citgo),35.689493,-80.422603,SLB6,,,,,,,America/New_York,
17bfaec0-6363-4796-82fa-1e8ed8b8c3f1,Plant City (Sunoco),28.018087,-82.114972,PNT6,,,,,,,America/New_York,
182335f4-920a-4722-8907-37010d066f2e,Jackson (Mega Mart),35.643747,-88.775903,JXT6,,,,,,,America/Chicago,
1889e282-7b9b-4a16-a729-dc5000bc1e29,Philadelphia,39.96072,-75.141096,6MK,,,,,,,America/New_York,
1903230b-a6c1-4ede-aca6-7f40f18d5d35,Cleburne,32.33797,-97.38444,CLU6,,,,,,,America/Chicago,
19713e41-dcf6-485d-b5f0-44f84c523123,Montclair,34.088556,-117.69663,UMC,,,,,,,America/Los_Angeles,
198e003c-1501-4f7e-b7da-8cc4f046d34d,Calgary (Downtown - 11 Ave SE),51.04171,-114.061586,7CA,,,,,,,America/Edmonton,
19977771-ec8a-4f8a-8fb3-03f4dd1daf3e,"Warner Robins, GA",32.612861,-83.740992,WTO6,,,,,,,America/New_York,
1a24da03-eee1-497f-a240-ed222380390f,Beeville (Exxon),28.389795,-97.77096,BVL6,,,,,,,America/Chicago,
1b3a311b-3f9a-47da-900e-ea41472736d4,New Haven Bus Stop,41.297569,-72.92609,NHV6,,,,,,,America/New_York,
1b73de0f-d601-4e68-ae47-4891c690ac98,Myrtle Beach Bus Station,33.692537,-78.885878,MYB6,,,,,,,America/New_York,
1bc72813-fd7a-41de-8820-605344e961c2,Henderson (Rosemart 206),36.297949,-78.388351,HDN6,,,,,,,America/New_York,
1bdf8468-e680-4b7d-a291-a4d5ad076505,Lafayette Bus Stop,40.421273,-86.894373,LFY6,,,,,,,America/New_York,
1c1c6a22-37fc-4b6e-b6a5-6c595f61b3bb,Elgin Bus Stop,34.102035,-80.825987,ELN6,,,,,,,America/New_York,
1c31b070-9e31-49da-9395-7b7d1f7cb8b1,Baytown Truck Center,29.798241,-95.031415,BYW6,,,,,,,America/Chicago,
1c3a052d-6559-4341-9fb1-a778c1666938,Tallahassee (CK Steele Bus Plaza),30.44401,-84.28252,TAL6,,,,,,,America/New_York,
1c563574-ebd8-486f-bdc8-8480ad471f16,Tyrone Bus Stop,40.669486,-78.23878,TYN6,,,,,,,America/New_York,
1c6d587e-f446-4ec5-bfd9-4fd7837bb647,Ocala Bus Stop,29.159985,-82.172575,OCF6,,,,,,,America/New_York,
1ca52ac4-1a3e-4eb0-b2d2-e5f86de99177,Green River,38.995182,-110.148947,GRN6,,,,,,,America/Denver,
1cded49c-028d-41ae-bafa-72e82976c01b,Goodland (Mcdonald's),39.332192,-101.72567,GDN6,,,,,,,America/Denver,
1d4b2c45-4d7f-484c-ab14-fd2a521ca928,San Antonio Pearl District,29.441896,-98.479232,2SP,,,,,,,America/Chicago,
1d676406-1d18-4b9f-b648-bb478de4f1d4,Boynton Beach Tri Rail Station,26.553563,-80.070578,BYB6,,,,,,,America/New_York,
1d755cf8-fab3-4fe8-894e-0e5b1c5b6cde,Greenville GK Butterfield Trans Ctr,35.610738,-77.376799,GVE6,,,,,,,America/New_York,
1da488b8-f885-4f7a-adbf-7efca7c20c27,Corpus Christi (7-Eleven),27.849487,-97.583134,CRP6,,,,,,,America/Chicago,
1f9df7b8-01b3-4992-962b-2fa1e8c9205e,Princess Anne (UMES),38.210761,-75.688994,UVN6,,,,,,,America/New_York,
200f1803-e3d8-4466-874f-d123cafb82a4,Brownsville Bus Station,25.901223,-97.495144,BRN6,,,,,,,America/Chicago,
211dd3c5-6b7b-4fec-9d51-ca64cadecb59,San Bernardino Downtown Transit Center,34.100784,-117.295351,UBD,,,,,,,America/Los_Angeles,
2196cc06-88e4-4c60-946b-5918ee0cceec,Chico Bus Station,39.723306,-121.84582,CHO6,,,,,,,America/Los_Angeles,
229b2dc8-6a3d-4659-9e9a-80b25561f5a0,San Jose Diridon Station,37.33072,-121.902,SJO6,,,,,,,America/Los_Angeles,
22d4bcab-1c3b-46a5-9fc7-fde232b2942b,Calgary (Brentwood Station),51.086783,-114.132995,7RE,,,,,,,America/Edmonton,
22d67de2-09ef-43f6-99de-4d09451474d4,Thornbury,44.564493,-80.45749,7TB,,,,,,,America/Toronto,
22ddf170-3b41-4d92-8642-36274aa1a925,Edmonton (Downtown - Jasper Ave),53.540752,-113.520506,7EO,,,,,,,America/Edmonton,
22de8394-2935-4894-a3a9-2c06c2f33201,Springfield (Love's),39.89359,-83.72236,SIF6,,,,,,,America/New_York,
237119e1-5f5f-495d-a60f-c43b111d41c2,Parowan (Travel Centers Of America),37.8605,-112.82987,PWN6,,,,,,,America/Denver,
2409127e-d5e8-4baf-a248-4590fcabca92,Utica Bus Stop,43.103863,-75.223426,UTI6,,,,,,,America/New_York,
241be5c6-774d-4a2d-b71a-c8a07282c702,Southfield Bus Stop,42.486454,-83.262073,SHF6,,,,,,,America/New_York,
241fa75f-6037-4fc2-b950-8997f13091d8,Vail (Eco Transit),39.642412,-106.373167,VIL6,,,,,,,America/Denver,
24972fe9-f153-47e9-a63b-fbe8833c5e4e,Calexico Bus Station,32.665684,-115.497015,CXO6,,,,,,,America/Los_Angeles,
249b267c-8eb4-45d9-8d24-97b5e3db658e,Shawano WI,44.73768,-88.445583,SAW6,,,,,,,America/Chicago,
24fade65-e57b-4fcc-8912-c156a60e688a,Gadsden (U-Haul),34.016372,-86.003011,GDA6,,,,,,,America/Chicago,
25157bf7-dea0-4ae7-820a-f4e0d15d2670,Saskatoon,52.157495,-106.693378,7SS,,,,,,,America/Regina,
25745bae-9eed-4474-beac-b1427303bbb2,Sulphur Springs (Travel Center),33.119925,-95.637291,SPP6,,,,,,,America/Chicago,
25c71301-95ac-455c-949c-db39574f1a9a,Rockport (Stripes),28.057077,-97.040796,RPT6,,,,,,,America/Chicago,
260858b9-d592-474f-97c6-6dc9a5ea789a,Long Beach Downtown Transit Gallery,33.768092,-118.19004,ULB,,,,,,,America/Los_Angeles,
262cba94-2498-4f04-9f88-be7c612e29d0,Deming (McDonald's),32.26806,-107.76702,DIG6,,,,,,,America/Denver,
2637b2aa-567e-4aec-8f2e-0aa8a0681b3a,Norfolk,36.84858,-76.211101,NOR6,,,,,,,America/New_York,
263cbe57-d960-4567-9182-b8c18395a464,San Diego (Downtown/Seaport Village),32.711333,-117.170306,USP,,,,,,,America/Los_Angeles,
269aa0bc-0432-481d-b922-5e3578764986,Wilmington Cape Fear Public Transit,34.25164,-77.874852,WNC6,,,,,,,America/New_York,
26ad8b41-9fe2-41d3-b16a-8b2e57456791,Charleston Bus Station,38.356976,-81.639989,CWV6,,,,,,,America/New_York,
26adcce7-f6fb-455a-886c-ad30db30e742,Lodi Bus Stop,38.133389,-121.27189,LDI6,,,,,,,America/Los_Angeles,
26e55517-442a-4130-9656-e0fe42c4cf9a,Albuquerque Bus Station,35.081521,-106.647855,ABQ6,,,,,,,America/Denver,
270789e6-4dc0-453f-9a9f-a180147499e6,Knoxville Area Transit Bus Stop,35.998146,-83.877649,KNO6,,,,,,,America/New_York,
270b4071-e2bc-4686-a54c-2840761d52f9,Warrenton (Phillips 66),38.82305,-91.1376,WRT6,,,,,,,America/Chicago,
27f94a30-3436-4fb8-9d88-eb5c6422bb6f,Winston Salem(Trans Center),36.099651,-80.24556,WNS6,,,,,,,America/New_York,
284c31b6-6a70-4456-8832-96a1a918503c,Philadelphia (Schuylkill & Walnut),39.95258,-75.18212,PSD6,,,,,,,America/New_York,
285b44bf-30a8-488d-a654-89dc756a6cc4,Lewiston (Bates Coll),44.104437,-70.2038,BTS6,,,,,,,America/New_York,
2912df9e-816c-4d2e-9e76-a75b93d0d0e1,Madison (Chevron),33.55825,-83.47519,MNO6,,,,,,,America/New_York,
29141570-c078-4818-8e26-1bd2bbace074,St. Albans Bus Stop,44.812194,-73.083097,SNB6,,,,,,,America/New_York,
2934624f-f1fe-4553-9a67-26962e87722f,Whiteville Columbus County Transit,34.333457,-78.722426,WHE6,,,,,,,America/New_York,
2949ff9e-29ad-40cc-b6a7-daf1d10f5aab,Detroit Bus Station,42.327847,-83.058373,DET6,,,,,,,America/New_York,
299697c9-e75a-404f-94cb-eb17041354d8,Visalia Transit Station,36.331647,-119.288635,VIS6,,,,,,,America/Los_Angeles,
2a147f1b-c065-4b7e-a1e9-844cdae919ff,San Diego (La Jolla - UC San Diego),32.881757,-117.223695,UCS,,,,,,,America/Los_Angeles,
2a3f6ef0-3395-448e-bee2-6416fefa7296,Bryant-Little Rock (Gassy's),34.627697,-92.496135,BRT6,,,,,,,America/Chicago,
2a9747a9-710b-4372-9a54-b018e1892baf,Camden Walter Rand Trans Center,39.943277,-75.118591,CDN6,,,,,,,America/New_York,
2adabb11-c8d8-4a4d-b862-3d9f2831f7e9,Slidell (Fremaux Quick Stop),30.277494,-89.775802,SLI6,,,,,,,America/Chicago,
2ae92e46-5e22-4991-af03-51574f963ccd,Toronto Pearson Airport (Terminal 1),43.682065,-79.612676,7YYZ,,,,,,,America/Toronto,
2b13d9da-74d0-45db-83f9-de26fb3eccba,Cheyenne (Sinclair),41.100166,-104.848409,CHY6,,,,,,,America/Denver,
2c3f5131-0798-43af-ab42-6001ae229851,Sebring (Mobil),27.472091,-81.466217,SRG6,,,,,,,America/New_York,
2c8c2b36-aa0c-4085-b58b-0dde7e4d4bd5,Clarksville,35.45386,-93.46537,CKS6,,,,,,,America/Chicago,
2d0714d2-6273-4e20-ab3e-f12c79fc05b3,Holbrook (Circle K),34.924114,-110.14675,HBH6,,,,,,,America/Phoenix,
2d4300a7-32a2-4f95-a493-de70b77ebb93,Duncan (Hotel Duncan),32.721773,-109.105041,DCC6,,,,,,,America/Phoenix,
2e38f968-c026-4cf0-8d99-e1d4f13375b9,Downtown Austin (9th St),30.268572,-97.734262,2AS,,,,,,,America/Chicago,
2e3b5370-1e5c-4082-98c1-cbb1d4d1e4d4,Tuskegee Bus Stop,32.423237,-85.691665,TSK6,,,,,,,America/Chicago,
2ee15b3c-b634-460e-a52e-197edba390d8,Vidor (Gateway Travel Plaza),30.112285,-94.04383,BOT6,,,,,,,America/Chicago,
2f3ed65d-cfa7-43b0-b2df-7c718dac339e,Woodstock (Dundas/Young),43.131182,-80.749368,7WT,,,,,,,America/Toronto,
2f4322ee-8f77-4ea8-923c-1c7e42755b3c,Benton Harbor Bus Stop,42.074116,-86.437111,BNH6,,,,,,,America/New_York,
2f8edd6a-c789-4cfd-9242-aec9c4be9df8,Russellville Bus Stop,34.491425,-87.728791,RLV6,,,,,,,America/Chicago,
2f8f3dab-2470-4d54-817b-76091d5503c0,New Smyrna Beach (Tropical),29.013375,-80.991927,NSM6,,,,,,,America/New_York,
2fa5ee0c-2d3f-4adb-9d53-266dc7d3b471,Hollywood Sheridan Trirail Station,26.031661,-80.167636,HOL6,,,,,,,America/New_York,
30c0bf7a-44d5-472b-a3a6-ac1b48731e0b,Toledo Bus Stop,41.638369,-83.54167,TOL6,,,,,,,America/New_York,
3112c9b1-506e-4687-9cf6-f1b97adef273,New Britain (Jimmy'S Food Mart #1),41.66753,-72.783236,NBI6,,,,,,,America/New_York,
31219358-9f98-450c-bf2e-cd3133dbf825,New York City Chinatown (Bowery & Canal St),40.716388,-73.995619,6CLS,,,,,,,America/New_York,
313b506e-1bd2-46db-a9f3-34f4c7b643eb,Batesville(Terza One Stop Shop),34.32422,-89.843,BMS6,,,,,,,America/Chicago,
31bf44d5-92b1-4ea9-89b1-e907e4d6deb7,Jefferson City (Conoco),38.549942,-92.149155,JFJ6,,,,,,,America/Chicago,
31ccda32-5553-48fa-9b82-a000e11f9c17,San Francisco Bus Station,37.790226,-122.396855,SFD6,,,,,,,America/Los_Angeles,
3244835b-8e5f-4fc2-8cb7-2eed4eb57ac2,Falfurrias (Stripes),27.225504,-98.140134,FFS6,,,,,,,America/Chicago,
32dc9241-0e62-47f9-8793-8724dd93cdef,State College Bus Station,40.79216,-77.8678,SCP6,,,,,,,America/New_York,
33e3f360-2827-4959-8d23-5e4b2ea4b2bb,Rochelle (Petro Rochelle Travel),41.93515,-89.033828,RCL6,,,,,,,America/Chicago,
345e30de-3ba8-4c74-b15f-3a2d55fad9e0,William Penn Park and Ride (Easton/Bethlehem),40.667825,-75.293581,6EB,,,,,,,America/New_York,
34b9c0e1-c052-4272-87d8-34777c3f451b,Downtown Miami,25.7782,-80.1868,4DM,,,,,,,America/New_York,
34ff4ad5-9369-44ed-ab28-272d47f8c955,Silver Spring Bus Station,38.990467,-77.024231,SSP6,,,,,,,America/New_York,
35a873f1-0895-4434-b45d-8059aa0d31d6,Richfield (Phillips 66),38.750325,-112.10317,RHE6,,,,,,,America/Denver,
35b86845-c364-4f30-8bcb-45fe201e4c3d,Chicago Train Station,41.877999,-87.640673,CHK6,,,,,,,America/Chicago,
35cb6bb2-def2-4ef1-81fc-ca180f3c57c0,Terre Haute Greyhound Station,39.467575,-87.406389,THA6,,,,,,,America/New_York,
35e65a6b-6911-4978-b6d0-a02ccb221a95,Crockett (Xpress Truck Stop),31.307102,-95.437994,CRK6,,,,,,,America/Chicago,
3613fa7a-5b8c-4486-8f2a-d24c9ce8eb7e,Jonesboro (Super Save#2-Chevron),32.255509,-92.723566,JER6,,,,,,,America/Chicago,
36d2c00e-1189-4d0e-bf91-7118810c2502,West Columbia (7-Eleven),29.144206,-95.647765,WCO6,,,,,,,America/Chicago,
36d7056b-eedc-46a8-ac03-34ada381f599,Springfield CU Transit Center,37.20943,-93.29688,SPR6,,,,,,,America/Chicago,
378913b9-77b7-40b9-9d2b-ff79d1c2546b,Chatham-Kent,42.34837,-82.183085,7CM,,,,,,,America/Toronto,
378d71e8-1342-485a-bd50-559b14b5f0c4,Goldsboro (Wayne Transportation),35.385459,-78.003166,AAI6,,,,,,,America/New_York,
3816ecf2-28e3-4cdd-a734-d125169d4449,Springfield Truck Stop (Valero),37.39702,-102.617,SRF6,,,,,,,America/Denver,
3824c851-3630-433f-980e-d9d44e951ff1,Victoria (Stripes),28.767921,-96.977655,VTR6,,,,,,,America/Chicago,
3839a025-a8a2-44ce-8e11-196dccd55ef0,Desert Hot Springs (Chevron),33.883634,-116.501134,DHT6,,,,,,,America/Los_Angeles,
384ac6d1-df0e-4810-8c31-6497d944cdad,Williams (Love's),35.2628,-112.19421,WAM6,,,,,,,America/Phoenix,
386c55b7-97e2-465a-9624-9f0cd5618bb6,Hearne (CEFCO C Store),30.882555,-96.596634,HRN6,,,,,,,America/Chicago,
38aba50b-4376-4563-a540-688d9d422b8e,Geneseo,42.796259,-77.81664,GEN6,,,,,,,America/New_York,
38dd6257-00e6-4546-8022-c77c92e1c755,Lake City Bus Station,30.187147,-82.636833,LCF6,,,,,,,America/New_York,
390d27aa-f4a8-4653-b537-2ccaf08104f1,Colonial Heights (Temple Ave),37.258096,-77.398269,4HE,,,,,,,America/New_York,
391b1cec-9fd3-45f3-84bf-10dff9d8e408,Ellensburg (Central Washington University),47.002072,-120.534764,1CW,,,,,,,America/Los_Angeles,
3972e132-7349-48e2-9030-8d564864de43,Ruidoso (Ruidoso Downs Shamrock),33.326493,-105.621174,RUI6,,,,,,,America/Denver,
397957ea-3fab-4a77-94a1-0c1a44e21b70,Glenwood Springs (W Glenwood Mall),39.561696,-107.361964,GWS6,,,,,,,America/Denver,
39a9be4a-29b4-4f81-8973-cb25f0f2dca8,South Haven (MI),42.403017,-86.256553,5SH,,,,,,,America/New_York,
39b34e1b-39b3-4ac0-ae48-b68307e41c47,Abilene (7-Eleven),32.478404,-99.696549,ABI6,,,,,,,America/Chicago,
3a93c4f9-f261-4670-851a-158b1e569a7c,Joplin Bus Station,37.085017,-94.542483,JOP6,,,,,,,America/Chicago,
3aa5aef7-6a80-4001-85f9-d592ca882a90,West Wendover Welcome Center,40.737266,-114.057467,WWN6,,,,,,,America/Denver,
3afa3807-a885-4766-a276-d8efc7092c57,Columbia (Midway Travel Plaza),38.973435,-92.433626,COM6,,,,,,,America/Chicago,
3b246504-3e1e-4abf-ab65-3a701ea48501,St. Catharines (Brock University),43.118089,-79.249246,7BU,,,,,,,America/Toronto,
3b41cf9b-b7e9-435d-935f-5e42abbbe331,Veracruz (Plaza Comercial Los Pinos),19.214056,-96.171946,VVA8,,,,,,,America/Mexico_City,
3bf10258-fb9b-4199-a778-89e03bdbb65b,Saint Paul Union Depot,44.947587,-93.085607,STP6,,,,,,,America/Chicago,
3bfea5cb-6e6c-4aad-a777-86cdf7258ff6,Farmington (Animas Valley Mall),36.762567,-108.148606,FYM6,,,,,,,America/Denver,
3c2b7cbc-9986-4dc8-b2dc-75812af2da6b,Lamar (Pilot),38.097021,-102.619192,LAM6,,,,,,,America/Denver,
3d0e235e-b57b-4ba5-907d-b7ced8b029ff,North East (Stop & Go),39.601433,-75.942328,NRT6,,,,,,,America/New_York,
3d150af4-0371-405a-b346-b8e0d77aa780,Apache Junction (Chevron),33.37913,-111.563862,ACJ6,,,,,,,America/Phoenix,
3d9e20e0-e9b2-4bf1-b5bb-fe8cacb6dc9f,Conroe (Shell),30.296443,-95.456588,CRO6,,,,,,,America/Chicago,
3dbd6082-8028-49f4-be29-14d54df88131,Evansville Bus Station,37.974186,-87.56974,EVN6,,,,,,,America/Chicago,
3de6590b-d74a-4ec4-b0d4-4777624b28d9,Los Angeles (UCLA),34.068781,-118.44902,UCL,,,,,,,America/Los_Angeles,
3e389400-8fad-4ed6-9748-630bcc31ac9d,Frederick Bus Station,39.411748,-77.405523,FRD6,,,,,,,America/New_York,
3e38e926-5ce5-43e1-8453-f2fa889772ca,Perryville Bus Station,39.56984,-76.0688,PRV6,,,,,,,America/New_York,
3e71f656-bd8d-4779-9bef-2e46d6671caa,Mt Shasta,41.310617,-122.315604,1SH,,,,,,,America/Los_Angeles,
3e73bb70-299d-40f9-b8f3-a898049071e4,North Battleford,52.763985,-108.282533,7NB,,,,,,,America/Regina,
3e7c535c-d2f0-40f8-ae5b-08cf11eae7e1,Alamogordo Bus Station,32.936013,-105.96443,AMG6,,,,,,,America/Denver,
3ef13f76-3f2a-4948-9f3f-0d9b66c96b16,Topeka (BP To Go),39.050888,-95.671547,TKA6,,,,,,,America/Chicago,
3f08f48b-22fd-4973-af64-3a0031e0942e,Springfield Bus Stop,38.76664,-77.1702,SPV6,,,,,,,America/New_York,
3f26dd2c-fbd2-4897-8731-70273611f619,Navasota (Circle T),30.37705,-96.06823,NAV6,,,,,,,America/Chicago,
3f6f3c2e-f78f-47da-98fe-8385fd205b25,Thomson,33.509298,-82.503131,THN6,,,,,,,America/New_York,
3fe44f0f-24d6-44d4-afce-5aed2a14fa6a,Battle Mountain(Golden Gate Travel),40.619229,-116.915148,BMT6,,,,,,,America/Los_Angeles,
401226c4-0a44-4317-a3c4-0605d99e219d,Calgary (Anderson),50.954447,-114.073318,7SM,,,,,,,America/Edmonton,
40981f5f-c46e-40ba-9b9d-9e12934d9337,Brattleboro (Shell),42.840377,-72.564743,BRV6,,,,,,,America/New_York,
40f3b23b-c4b3-46bd-81c7-a1855b70beb9,Indianapolis Bus Station,39.761784,-86.161018,IND6,,,,,,,America/New_York,
4162894d-68dd-499d-8e63-86733962303b,El Centro Bus Stop,32.791848,-115.558661,ELC6,,,,,,,America/Los_Angeles,
419bac14-8fb3-4b21-8617-a429057b8994,Lehigh Valley International Airport,40.6525,-75.4319,ALW6,,,,,,,America/New_York,
425969a0-39b6-4d88-a28e-57fb99070948,Florence (Wavaho Gas Station),34.84288,-87.668995,FLA6,,,,,,,America/Chicago,
428a7e06-8aea-4d00-9de0-f95d18c97702,Indio Bus Station,33.72033,-116.215,IDO6,,,,,,,America/Los_Angeles,
43c051a4-4f8f-4872-bae7-9916ebc35c13,Covington Bus Stop,39.088686,-84.511348,CVT6,,,,,,,America/New_York,
43da8660-00fc-44c3-b5c1-17f3bfc4e090,Yakima (Tall Mens Supermarket),46.597006,-120.51479,YAK6,,,,,,,America/Los_Angeles,
44ea355a-7211-460d-9de8-919cb59bf01b,Orangeburg (Xpress Travel Center),33.481555,-80.883477,ORS6,,,,,,,America/New_York,
44f6332a-c04e-4fc0-a1d8-a77121aacdcb,Greenfield John Olver Transit Ctr,42.58564,-72.600426,GMA6,,,,,,,America/New_York,
45054dbc-6553-4729-b5e4-1bb63aa8b926,Strathroy,42.984743,-81.630153,7STR,,,,,,,America/Toronto,
454980b1-6293-4ed8-98bc-51570e651e39,Reno Amtrak,39.528664,-119.811729,RNA6,,,,,,,America/Los_Angeles,
456e5db1-3910-49f4-a73a-b1a94c626fb2,Delaware Welcome Center (Northbound),39.661443,-75.691637,6DB,,,,,,,America/New_York,
460e90bb-cea2-4bb7-9234-0c679cc604c3,Raceland (Shell),29.70446,-90.56656,REC6,,,,,,,America/Chicago,
461b90c4-47ed-4e2a-ba4f-f403a79fb5af,"Chapel Hill, NC",35.97112,-79.070549,CPH6,,,,,,,America/New_York,
46589f71-1e02-4832-9261-cd7904ace0e7,San Francisco (5th/Townsend),37.775168,-122.397317,USF,,,,,,,America/Los_Angeles,
466b3cb7-9b43-4934-bf4b-61a5099a91eb,Mount Vernon Bus Stop,48.418352,-122.334722,MEV6,,,,,,,America/Los_Angeles,
467549d9-2e6b-468c-a992-a3478777ae55,Abbotsford WI,44.928617,-90.315131,AWI6,,,,,,,America/Chicago,
46946b34-7c87-42a7-8db7-0d123c47f385,Jacksonville Bus Stop,34.76693,-77.40727,JVL6,,,,,,,America/New_York,
4706e3f5-96cd-4ceb-9ed6-0bd5f588d0d5,Storrs (University of Connecticut),41.804409,-72.241717,6HU,,,,,,,America/New_York,
4726acaa-9ffa-445e-903b-2166eb84bdaa,Erie (Erie Bus Stop),42.137143,-80.08447,ERI6,,,,,,,America/New_York,
4728b904-544b-4ab0-9555-60edc4073ccb,Keene (Corner News),42.932261,-72.278301,KNK6,,,,,,,America/New_York,
4736abdd-3740-4381-aa70-adeb6e4c2dfb,Allentown (Allentown Bus Stop),40.60438,-75.47131,ALL6,,,,,,,America/New_York,
489c7fe5-16c2-4659-b0c8-addac8a8ec08,Birmingham (Express Carriers),33.51246,-86.808085,BHM6,,,,,,,America/Chicago,
48b96d1a-f75c-47a3-90f1-aef2e5211cf7,San Luis Obispo Railroad Museum,35.272426,-120.655311,ULO,,,,,,,America/Los_Angeles,
48cbf369-0bbb-4a35-a37c-bd66445823f3,Ottawa (VIA Rail),45.416835,-75.651006,7OT,,,,,,,America/Toronto,
48f018f0-8e54-42e1-8dab-6eabb47bbffc,Madoc,44.512563,-77.478155,7MD,,,,,,,America/Toronto,
4918d1e6-d05a-4e7d-b521-704ed52ee5aa,Manitowoc (Shell),44.078601,-87.698887,MTT6,,,,,,,America/Chicago,
494dd236-e265-4f69-a2c1-0f5e50e15332,Whitby - Oshawa,43.872162,-78.907835,7OS,,,,,,,America/Toronto,
4987e5cd-2628-45f1-b7d1-86c38c65e6a9,Naperville (Route 59 Metra Station),41.778218,-88.209513,NEM6,,,,,,,America/Chicago,
49c0149b-fe6e-46c1-8c73-d3f9c997c507,Springfield Union Station,42.106406,-72.594153,SPM6,,,,,,,America/New_York,
49d7867a-25a7-4fea-ae96-e8d8384d514e,Salisbury Park & Ride,38.36512,-75.55477,SSB6,,,,,,,America/New_York,
4a31a09e-1f37-4799-acbd-50bdda33be11,Sweetwater (Love's),32.450496,-100.441585,SEW6,,,,,,,America/Chicago,
4a36ccc0-306b-426d-b01e-5e33b6b2a5e6,Killeen,31.121048,-97.7288,KLE6,,,,,,,America/Chicago,
4a3ccf62-308c-4326-b539-6f42b71fa9d0,Saratoga Springs Train Station,43.082773,-73.80999,SGA6,,,,,,,America/New_York,
4a71452b-9fed-4e98-a84a-9f4d1dcff9c3,Malvern,40.050905,-75.51995,6MV,,,,,,,America/New_York,
4a873a51-4aab-4638-92dd-c885274ffa1f,Peterborough (Fisher at Casino),44.271214,-78.348495,7PO,,,,,,,America/Toronto,
4a9af60b-aedd-4f28-b8ce-5ff4a7ea1f9a,Meaford,44.614389,-80.597755,7ME,,,,,,,America/Toronto,
4a9cb1c9-6496-4a39-a36b-593c4ea938c0,Flagstaff Bus Station,35.192248,-111.639101,FLG6,,,,,,,America/Phoenix,
4ab06f86-7aea-498e-a0d0-3468130f4945,Valparaiso (Valpo Village Station),41.464774,-87.065584,VPR6,,,,,,,America/Chicago,
4ae0cc58-7803-43b8-abcc-64ee6b671633,Petersburg Transportation Center,37.227032,-77.405286,PTB6,,,,,,,America/New_York,
4b311f84-fd0d-41eb-810d-91dee90ff513,Monterrey (B. Reyes 1214 - Titanes),25.688573,-100.323239,MNB8,,,,,,,America/Mexico_City,
4c06a50a-2d89-4290-b0c7-7f17432a8d57,Brady (Stripes),31.115475,-99.335597,BDR6,,,,,,,America/Chicago,
4c67d0aa-0f1f-43a3-b178-49bfa2910437,Roswell Pecos Trails Transit,33.398371,-104.522742,ROS6,,,,,,,America/Denver,
4c68b264-9ba8-4fd5-9638-34feb86f3c15,Delaware Welcome Center (Southbound),39.661893,-75.69196,6DW,,,,,,,America/New_York,
4d271c57-fbb6-44e9-b02b-0839c7c787e6,Scarborough Centre,43.774231,-79.254122,7TE,,,,,,,America/Toronto,
4d610472-d4fb-467c-bbba-f5a0ba815904,Zapata (Stripes),26.896573,-99.263433,ZAP6,,,,,,,America/Chicago,
4d7fa57a-7df5-4352-8237-4578dfea3f46,Truckee (Chamber Of Commerce),39.327541,-120.18574,TCK6,,,,,,,America/Los_Angeles,
4da8fa9d-15d2-4cb5-a9dd-d5a302657715,WinStar World Casino,33.760058,-97.130409,2WT,,,,,,,America/Chicago,
4db097dd-5247-45f8-969e-6085b422adb3,Vaughan - Pioneer Village,43.777451,-79.508727,7PV,,,,,,,America/Toronto,
4dbc7d5c-b852-4e70-b5a8-aa80c5e88352,Florence Bus Station,34.188057,-79.76753,FLO6,,,,,,,America/New_York,
4df17242-eaff-4a18-b153-43284a7deab3,Juarez(Plaza El Paseo),31.71357,-106.45121,JMX6,,,,,,,America/Ciudad_Juarez,
4df4ff33-0abd-4bd7-ae4b-8c40105b735b,Aguascalientes (Soriana Nueva Casablanca),21.861312,-102.274017,AGU8,,,,,,,America/Mexico_City,
4e0f673f-0f09-49f2-9997-39ca69e5245e,Dublin,32.482952,-82.896577,DGA6,,,,,,,America/New_York,
4e62f650-6938-423a-8276-687ed7757352,Canmore,51.096449,-115.356458,7CN,,,,,,,America/Edmonton,
4ea6715b-28d4-47cb-a503-759432ad3c03,Downey (Stonewood Center),33.93433,-118.118556,UDW,,,,,,,America/Los_Angeles,
4efd39e2-d231-413a-a1b7-f7826c3380a8,Forrest City (McDonald's),35.031442,-90.790112,FRY6,,,,,,,America/Chicago,
4f29dcd6-c297-49e3-86ff-c7d3d4dedc47,Houston Baytown,29.796992,-95.031609,2BT,,,,,,,America/Chicago,
4f6a99b2-7419-45fb-b68d-e92277750585,New Orleans International Airport,29.985341,-90.257175,NOA6,,,,,,,America/Chicago,
501a9f57-a8eb-4bec-90ea-dcf67a256573,Laurel (7-Eleven),39.10281,-76.855905,LRL6,,,,,,,America/New_York,
504187bf-baec-49b7-8d79-c3e64aaf18b0,Windvale Center,30.228954,-95.510221,2WI,,,,,,,America/Chicago,
5051cd2e-3746-4af9-902b-b4f96fa01a2a,Richmond North (McDonalds Mechanicsville Tpk),37.558337,-77.409089,6RNM,,,,,,,America/New_York,
5055aaa1-4d5f-4cb7-afc4-d980752247c0,Cobourg,43.978011,-78.194591,7CB,,,,,,,America/Toronto,
50707e2e-100c-4b1e-bdee-946217f16d9f,Phoenix Sky Harbor Airport/44th Street Station,33.447222,-111.99089,UPX6,,,,,,,America/Phoenix,
50944142-433e-4e26-8c54-a1e7021a2b43,Providence (Canal St & Smith St),41.831,-71.411325,PRO6,,,,,,,America/New_York,
515acfaf-9565-4f5b-a0f3-abd8b78659fd,Delano Bus Stop,35.772065,-119.247771,DLO6,,,,,,,America/Los_Angeles,
51a6bde8-dd3c-4e04-98c2-d90de1e1db5f,West Salem Bus Station,40.944779,-82.082571,WSS6,,,,,,,America/New_York,
5202fef1-aac3-4cba-b1ef-5cb28aae539b,Burlington Downtown Transit Ctr,44.480332,-73.214139,BT6,,,,,,,America/New_York,
522211a4-f03a-47cf-b6e5-2808ceb25828,Anaheim Regional Transportation Intermodal Center,33.803297,-117.876998,ANA6,,,,,,,America/Los_Angeles,
52cc257e-2eb8-46d5-969c-7f2ba87072d1,Brooklyn (3 Av/38th St),40.654604,-74.007738,6BRO,,,,,,,America/New_York,
52f5ac71-16f3-4d58-8a41-202cde38f5ea,Wisconsin Dells (McDonald's Commerce St),43.587425,-89.813367,WIS6,,,,,,,America/Chicago,
5315fe4b-a578-4925-84d9-d254a869ee68,Sauble Beach,44.630698,-81.269497,7SE,,,,,,,America/Toronto,
532355ba-60cc-4656-a47f-3dad476ed135,Huntsville (Surplus Store),30.723219,-95.549356,HNT6,,,,,,,America/Chicago,
5336aa6e-83ac-433e-963a-c5792fee7eef,Manchester (Shell),35.497063,-86.087616,MNC6,,,,,,,America/Chicago,
5361ea13-751f-4177-b0ee-fddc25e94fd1,Charlotte Bus Station,35.230519,-80.848717,CLT6,,,,,,,America/New_York,
539bd509-a3e5-4f57-badf-e675625a8b0a,Fort Stockton (Stripes),30.902447,-102.912976,FTS6,,,,,,,America/Chicago,
53dc472f-8dc9-470d-a07c-e2a68181022a,Smithfield (Super Disc Mini Mart),35.485872,-78.363591,SMF6,,,,,,,America/New_York,
54374565-c47d-41f6-ad4a-6e613b7f570d,Henrico (Parham Rd Park & Ride),37.619751,-77.556838,6WL,,,,,,,America/New_York,
544d7a8d-9d9a-4ef8-a7c3-4b2be380aef3,Kingman (McDonald's),35.21839,-114.00732,KNG6,,,,,,,America/Phoenix,
54769b18-a728-42d4-a7f9-b238058e6989,Bald Knob (Marty Mart),35.321316,-91.560513,BDN6,,,,,,,America/Chicago,
54c70874-a00b-4939-ac3b-a9cb3484b626,Lake Wales (Citgo),27.913752,-81.603937,LWA6,,,,,,,America/New_York,
55b07fb1-b6da-4069-975d-e69d4278391a,Denver Union Station Bus Concourse,39.75392,-105.00111,DEN6,,,,,,,America/Denver,
55e62a27-f4cb-4b3b-a978-f36921998a14,Waco Bus Stop,31.552287,-97.132734,WAC6,,,,,,,America/Chicago,
55f80be3-5546-4095-8675-d79b5cbaa2b4,Ruston (Tech Mart),32.523736,-92.648286,RST6,,,,,,,America/Chicago,
5658678c-b8c8-4d28-bc0c-9d9f05f83c3d,Monroe (A&G Express),35.01195,-80.5676,MNR6,,,,,,,America/New_York,
56c7b0eb-991d-4e2a-bfc1-e6af6bd59bb7,Los Angeles (Hope St/Jefferson Blvd - University of Southern California ),34.01959,-118.278295,USC,,,,,,,America/Los_Angeles,
56e57e46-2c99-4445-bd63-0a17e7c88095,Belle Glade (Twin Brothers Belle),26.681941,-80.683143,BLB6,,,,,,,America/New_York,
56ede5dc-5956-47c7-a986-59b620150e95,Katy (I-10 Frontage Road),29.776417,-95.832361,2KT,,,,,,,America/Chicago,
57155d01-eacd-4b7b-ae27-48a27b6fa07d,Marathon Airport,24.72548,-81.0495,MRN6,,,,,,,America/New_York,
57218808-8506-4f8e-8c2f-832959540ce9,Lewiston Bus Stop,44.098342,-70.215204,LEW6,,,,,,,America/New_York,
573a36c2-824b-48be-a7ad-7c6fda585712,Montgomery Intermodal Center,32.379652,-86.314837,MRY6,,,,,,,America/Chicago,
576ae8ed-117f-4548-81eb-a598efade0b4,Rio Grande City (Stripes),26.371261,-98.86058,RGC6,,,,,,,America/Chicago,
583913e1-e9b2-4165-a513-f68d5c0cf288,Austin South Congress,30.223512,-97.766173,2SC,,,,,,,America/Chicago,
587d828b-1233-4519-901a-a1ba419642dd,Clewiston (Walmart),26.756001,-80.948921,CLE6,,,,,,,America/New_York,
588ae487-48ad-4f53-ba7b-3cf0a496b0c4,Mexico City Degollado (San Pedro Santa Clara),19.446507,-99.149608,MXB8,,,,,,,America/Mexico_City,
59711fa3-64b6-43c7-8266-ee86fbdf8517,Mount Pocono (Martz Express),41.117962,-75.354297,MOC6,,,,,,,America/New_York,
597f6a89-d24f-4f23-a289-7eacda89914a,York Bus Stop,39.967186,-76.728149,YKK6,,,,,,,America/New_York,
59b12f27-dce6-4fd4-879e-18489a2232b8,Manhattan KS,39.188192,-96.557385,MAH6,,,,,,,America/Chicago,
59bfb1a9-f4a9-4c77-a7db-80be61bb9357,Beckley Intermodal Parking Garage,37.776487,-81.192964,BEC6,,,,,,,America/New_York,
5a86f67c-e010-4e38-b98c-bc36f8260ba0,Atlantic City (Tropicana),39.35297,-74.447004,TPC6,,,,,,,America/New_York,
5ac05f78-82fc-4bad-9754-8ec0e58739bb,Kankakee (Ricky Rocket Fuel Center),41.119948,-87.834343,KKE6,,,,,,,America/Chicago,
5bd65f98-cc41-402c-b4b9-307c47c3da6b,Sheboygan (Sheboygan Transit),43.75065,-87.714153,SGS6,,,,,,,America/Chicago,
5c07d7e6-6f25-4f2c-bc47-171aa33ffa5c,Conyers (Texaco Plaza),33.664127,-84.03463,CNE6,,,,,,,America/New_York,
5c684861-0954-4d00-83e9-04a2663305da,Manchester(Veterans Memorial Park),42.988141,-71.463188,MAN6,,,,,,,America/New_York,
5cac1b6f-bcf3-4d5c-9d71-e2e036e15109,Battle Creek Bus Stop,42.318616,-85.187685,BCM6,,,,,,,America/New_York,
5d1cafdf-bd19-4b48-af5a-22ff61121e4b,"Tucson (6th Street Garage - University of Arizona, Tucson)",32.22797,-110.954194,UOA,,,,,,,America/Phoenix,
5d6c0ae0-43f6-47c0-9332-391b074d2749,Indianapolis Northeast (E 38th St),39.82606,-86.027666,7IO,,,,,,,America/New_York,
5d7ba288-a652-4500-8762-eb65c12361f4,Lake Charles (City Point),30.227891,-93.204614,2LS,,,,,,,America/Chicago,
5de297ea-da30-411b-98e2-cb7ae0fdb4c1,Kitchener (Downtown),43.454671,-80.49342,7KI,,,,,,,America/Toronto,
5e3c8a08-0168-4f78-a5f7-bc906f3bf2d5,Oglesby (McDonald's),41.296789,-89.078319,OEY6,,,,,,,America/Chicago,
5f1f75ff-e4dc-475d-a2c0-ac27fb94e5b6,Fredericksburg (Stripes),30.25116,-98.8951,FDK6,,,,,,,America/Chicago,
5f407240-445d-4931-a498-020a1a783d43,Port St Lucie (Park & Ride),27.263648,-80.415742,PSL6,,,,,,,America/New_York,
5f627271-6a59-4086-b3dd-d4739b1eb978,Searcy (Citgo),35.234419,-91.698227,SRY6,,,,,,,America/Chicago,
6022e594-7417-456c-8e02-183f2f078835,Gastonia Transit,35.264299,-81.180141,GTS6,,,,,,,America/New_York,
60409d73-88cf-45e2-b25c-79ec7bd3f21c,D'Hanis (Stripes),29.33153,-99.274836,DNN6,,,,,,,America/Chicago,
60489795-3283-4552-814b-6578a4b3ba19,Cookeville (Marathon),36.138262,-85.502543,CKV6,,,,,,,America/Chicago,
609d268f-5d58-40b4-9549-6352e4a8acc1,Cambridge Centre,43.395116,-80.321397,7CAM,,,,,,,America/Toronto,
60ab92d6-3a6c-4494-9ba7-a57c10c81296,Norman (Sinclair Masters Oil),35.218026,-97.473179,NMN6,,,,,,,America/Chicago,
60f9b839-3692-474c-9981-447157b4a880,Palm Coast Bus Stop,29.475359,-81.181546,PLM6,,,,,,,America/New_York,
61019f07-d8bc-4410-89ab-1ed6cdf764f1,Baton Rouge Park & Ride,30.421846,-91.140724,BOP6,,,,,,,America/Chicago,
61178bc3-28a9-4b04-872b-022b52c21019,Pittsfield (Joseph Scelsi Intermodal),42.451528,-73.253273,PTF6,,,,,,,America/New_York,
6174b205-59eb-4710-ba13-982ef4e76dc4,Fayetteville Bus Station,35.053688,-78.886862,FAY6,,,,,,,America/New_York,
61dc1d26-3264-4cce-908c-72411bb2b354,Hartford (Union Station),41.768822,-72.68157,HAR6,,,,,,,America/New_York,
6265b7a1-9e86-4265-b5ac-ca4ebec89803,Junction City (The Joint),39.012945,-96.831212,JCC6,,,,,,,America/Chicago,
6275fb2b-3d69-4dac-92de-04101fe214be,Alice (Alice Food Mart),27.74339,-98.084242,AET6,,,,,,,America/Chicago,
62b75e48-9a89-4a37-93ee-36d2920e21cc,Dekalb (Holmes Student Center),41.932551,-88.765702,DKB6,,,,,,,America/Chicago,
631ed69e-5a61-4b60-8348-51c326304e96,Lynchburg Transit Center,37.40759,-79.156874,LCB6,,,,,,,America/New_York,
632b4187-cff2-4837-b6ba-2d0376386419,Charlottesville Union Station,38.031241,-78.490568,CHV6,,,,,,,America/New_York,
6359b5af-2192-4c30-a392-918630eb2a32,Los Angeles Downtown (FlixBus Lot),34.056807,-118.232165,ULA,,,,,,,America/Los_Angeles,
635cb4d6-5c97-4de1-adad-dd25c0cf1477,Bernalillo (Rail Runner Station),35.316131,-106.538619,BDL6,,,,,,,America/Denver,
636f419a-2212-4205-86a4-38314df2d93c,"Bay City, TX",28.984088,-95.938981,BAY6,,,,,,,America/Chicago,
63913953-0b67-40e4-b073-828441d69ba2,Washington,38.54566,-91.01512,WAS6,,,,,,,America/Chicago,
63a06559-4fd1-48ed-8b61-9769f21cdca7,Berea (Kiln Time),37.572954,-84.298967,BEB6,,,,,,,America/New_York,
643915c2-d19c-48c9-af6f-d2e0151402f3,Ebensburg (A-Z Travel Agency),40.485183,-78.726201,ENB6,,,,,,,America/New_York,
6444f8db-6a3a-4f8d-abdf-21e878e11a14,Stanley WI,44.949779,-90.938373,STI6,,,,,,,America/Chicago,
64a5eb8a-6de1-4b83-a751-a8069ef9564c,San Ysidro Bus Terminal,32.544694,-117.029819,POE6,,,,,,,America/Los_Angeles,
65257d3f-c207-4bcb-aebf-9209d0223264,Seattle (6th Ave S & S Lane St),47.596746,-122.326012,1SE,,,,,,,America/Los_Angeles,
6544fd09-230a-43f4-b8ca-4a5cca7b53f6,West Palm Beach Bus Station,26.712113,-80.062096,WPB,,,,,,,America/New_York,
65968d6b-1207-478e-9654-76024a64b55c,Lake Placid (Wendy's),27.29223,-81.359174,LEC6,,,,,,,America/New_York,
6598ac97-941f-4f97-924e-6e6c0f90fd67,Winnemucca(Winners Inn-Casino),40.97182,-117.73613,WNN6,,,,,,,America/Los_Angeles,
659980ed-ab55-4f1f-8826-59e451e7e515,Portland Curbside Bus Stop,45.530414,-122.678192,PUT6,,,,,,,America/Los_Angeles,
65d906db-6f4c-4c90-9967-d17f94da4e1d,Wells Transportation Center,43.32078,-70.6121,WLS6,,,,,,,America/New_York,
65f698bc-3c79-4aa6-ba98-ccb741b79403,Islamorada (Wendy's),24.922235,-80.630005,ISL6,,,,,,,America/New_York,
662f6624-1cd2-4674-a532-dd17b5ca8ec5,Grants Pass (A-1 Market),42.442598,-123.323307,GSP6,,,,,,,America/Los_Angeles,
667d72bc-3442-4ea6-9246-b6182caaa8e4,Benson Visitors Center,31.9682,-110.295,BSN6,,,,,,,America/Phoenix,
6695b343-8fac-4886-9e8d-c9bea1a0c32b,Rockledge (Mobil),28.306591,-80.742205,RKD6,,,,,,,America/New_York,
674ad102-6ef6-44e5-950d-4028fc41a3cb,Perry (2 Go Express),36.288853,-97.325592,PRR6,,,,,,,America/Chicago,
67af6120-0891-4236-aa7d-4bb179a4342f,"Bonita Springs, FL",26.33078,-81.76076,TCN6,,,,,,,America/New_York,
680a9da2-732a-4936-bdeb-18bcab7adb71,South Bend Transpo (S St Station),41.669574,-86.250679,SBI6,,,,,,,America/New_York,
68472ae2-6097-49a5-8d25-c615d8ada2c7,Titusville (Sunshine Chevron),28.552284,-80.849421,TTL6,,,,,,,America/New_York,
68912540-a05b-40fa-9494-1e517d230b8b,Athens Transit Center (UGA),33.959977,-83.370383,4GA,,,,,,,America/New_York,
689969d1-585c-49d1-9965-bc000b6fe951,Jonesboro (JET Transfer Station),35.834924,-90.67796,JNB6,,,,,,,America/Chicago,
69bcd6de-a4a5-4af5-9eea-919f9e30dcb9,Tucson Bus Station,32.220369,-110.958938,TUC6,,,,,,,America/Phoenix,
69d4fabf-9a36-45f3-b65b-c4b753b84508,Lafayette Transit System,30.226141,-92.013895,LAF6,,,,,,,America/Chicago,
69f0baf8-f238-41f6-93c3-3beae6071368,Chippewa Falls,44.885524,-91.418191,CIP6,,,,,,,America/Chicago,
6a235320-7475-4890-a00f-baeb4d704d55,Downtown Dallas / Deep Ellum,32.784989,-96.79006,2DA,,,,,,,America/Chicago,
6a2efeac-25ab-43c7-84dd-d994a7803bec,Marysville,39.143663,-121.597286,1MV,,,,,,,America/Los_Angeles,
6a55c4f4-3525-4dd1-8198-e1449dd66f6f,Hudson (WI),44.964673,-92.722641,5HU,,,,,,,America/Chicago,
6a8edbc8-9705-4213-afba-c78225a0603e,Stroudsburg Bus Station,40.986952,-75.152745,SUS6,,,,,,,America/New_York,
6acd686c-963a-4733-b139-34875dd548c4,Charleston Bus Station,32.875148,-79.998177,CSE6,,,,,,,America/New_York,
6b163410-d4f1-4992-990b-8b286b9d4877,Newport (Exxon),35.638109,-91.243166,NPT6,,,,,,,America/Chicago,
6b586990-fdb8-4561-843c-b66901651cbd,Cleveland Bus Station,41.50354,-81.682877,CLD6,,,,,,,America/New_York,
6b5d458b-98a2-4bc8-b993-e4cb12b03971,Jasper (Love's),33.79126,-87.24161,JAS6,,,,,,,America/Chicago,
6b643574-bf7d-4d0d-a30c-9dfb455b2b55,Latrobe Arnold Palmer Reg Airport,40.27296,-79.4056,LRP6,,,,,,,America/New_York,
6b6a08ef-fd89-4ea9-bc3e-027550838c57,Columbus Bus Stop,32.444762,-84.924474,CLG6,,,,,,,America/New_York,
6b75f1e3-b52e-46a5-9ad0-7aedbaf685cd,Montclair Transcenter,34.095256,-117.694295,CMC6,,,,,,,America/Los_Angeles,
6b7ade41-5c48-4dfe-a74a-53515b49ccec,Lorain County Transportation & CS,41.368482,-82.102905,ERY6,,,,,,,America/New_York,
6b7c6c28-7b65-43bf-8fe1-ae6c7e87ec62,Fort Worth Downtown,32.751897,-97.329315,2FW,,,,,,,America/Chicago,
6b918e30-e427-4ee3-ae1e-2e587a194f78,Reynosa (Edificio 10928),26.055855,-98.363588,REY6,,,,,,,America/Matamoros,
6c04e813-1e6e-4ea4-8b11-b3187dfc7889,Kansas City Bus Station,39.10031,-94.569153,KCD6,,,,,,,America/Chicago,
6c1212b0-4b0e-43fc-9255-34d8ef22be21,Elko (Sinclair),40.810354,-115.820111,EKN6,,,,,,,America/Los_Angeles,
6c85b288-4218-4def-9ad5-3d493d001f23,Strathmore,51.038623,-113.401029,7MO,,,,,,,America/Edmonton,
6cc4be6f-aaab-4b81-9334-7fbf9dfafc46,Trinidad (Trinidad Fuel Stop),37.133833,-104.520412,TRN6,,,,,,,America/Denver,
6cce9fa8-b7bd-491f-92de-a476daa45f95,Warner Robins Bus Stop,32.6294,-83.6119,WRG6,,,,,,,America/New_York,
6d116b0c-6f1b-4fe3-a016-b9ccf42ac79c,Ottawa (Bayshore),45.346014,-75.807562,7OB,,,,,,,America/Toronto,
6d44c14b-6952-4ad1-9710-c54fef7a5f87,Mcallen Bus Station,26.204237,-98.236073,MLN6,,,,,,,America/Chicago,
6d7d51a0-19ce-438c-987e-3a140bda6053,Victorville Bus Stop,34.538071,-117.294194,VTT6,,,,,,,America/Los_Angeles,
6da515a4-06a9-430b-ad32-164b6b85523e,Newton (Citgo),35.697723,-81.26255,HKN6,,,,,,,America/New_York,
6dc34d99-11fc-4a9b-824d-3c1c03510c97,Cincinnati (University of Cincinnati),39.133766,-84.509125,5UC,,,,,,,America/New_York,
6df4c21e-30a2-4d50-8578-e2fd68d5b0fa,South Hill (Slip N Food Mart),36.71105,-78.109,SHL6,,,,,,,America/New_York,
6e4bc975-ec2c-4f3b-b993-cbed6547c54b,Mexico City Buenavista (Fórum Buenavista),19.451151,-99.152028,MXF8,,,,,,,America/Mexico_City,
6f4171eb-cd41-4bc9-b9bd-50fa794cb9db,Oceanside Transportation Center,33.193151,-117.379146,OSC6,,,,,,,America/Los_Angeles,
6f4d9d85-877f-4452-bc80-65d5441215dc,Gary Bus Station,41.603921,-87.338694,GRY6,,,,,,,America/Chicago,
6fcc12a8-c7a7-4b9c-823d-f51606bbff4d,Wausau Transit Center,44.959515,-89.623646,WAU6,,,,,,,America/Chicago,
6fd13102-9b15-4286-8568-a7fc934d5bc1,St Louis Bus Station,38.624763,-90.203882,SLD6,,,,,,,America/Chicago,
705b5f3d-2782-4e71-ab82-95d2204edcde,Miami Intermodal Center,25.79722,-80.2576,MID6,,,,,,,America/New_York,
70fe4a43-595a-4723-8b23-1ed1247b62b1,Houston Bus Station (Greyhound),29.735379,-95.301864,HOU6,,,,,,,America/Chicago,
71914082-fe6c-40ff-902e-c84e5c227f8d,Washington Union Station,38.89758,-77.006158,DCD6,,,,,,,America/New_York,
71dfa76e-a479-4891-9ec3-ddf1896d3d27,Reynosa Periferico (Hotel City Express),26.057624,-98.362894,RNN6,,,,,,,America/Matamoros,
7201d037-186e-41b6-a591-65bc1b8da5af,Peterborough (Tim Hortons Byersville),44.281757,-78.349963,7PE,,,,,,,America/Toronto,
72197015-a0e5-46a6-89be-98fb02f4f55f,Moultrie Transit Center,31.17913,-83.786337,MLL6,,,,,,,America/New_York,
724d63ad-788b-46a9-8992-888faedffbed,Walsenburg (Paperback Trading Post),37.625498,-104.78215,WSG6,,,,,,,America/Denver,
728315b8-f785-47f7-879d-f403cca11584,Columbus Bus Station,39.97068,-83.09795,CLS6,,,,,,,America/New_York,
729ee3c2-244d-496a-8756-a2d251a3b82d,Amsterdam (Amsterdam Mall),42.9371,-74.1909,AMS6,,,,,,,America/New_York,
73ea7cfa-31a9-400c-80f0-a0bf859823b9,Barstow Station,34.891696,-116.998941,UBR,,,,,,,America/Los_Angeles,
74b8f0dc-56a2-4d1b-b0a4-abe9df30a007,New York (GW Bridge),40.848858,-73.938313,GWB6,,,,,,,America/New_York,
74c14a99-742b-43e5-96c7-12998afa4495,La Monte (BP),38.761,-93.38187,LMO6,,,,,,,America/Chicago,
74ff0f5e-e2c7-449d-9316-7f8e6c24867f,Orange (Exxon),30.116448,-93.821572,ORG6,,,,,,,America/Chicago,
7611a214-eaa7-41fe-84a1-94e6a6b0cdec,Pasco Bus Stop,46.236637,-119.08735,PAS6,,,,,,,America/Los_Angeles,
761d4d0e-24a5-4c13-ad06-48f981b9b086,Bridgeport Bus Stop,41.181112,-73.187206,BDB6,,,,,,,America/New_York,
76979819-84d8-4541-8e43-b1840c792051,Lumsden (Esso),50.654047,-104.865352,LUM6,,,,,,,America/Regina,
76b3da0e-84ca-449d-9a5b-52c5db090a02,Lloydminster,53.27678,-110.01012,7LY,,,,,,,America/Edmonton,
76ba07af-74f5-4447-90cd-9a1251aaf1df,"San Luis Potosí (Soriana, Plaza El Paseo)",22.141467,-100.956131,SSA8,,,,,,,America/Mexico_City,
76fdc62d-ca50-47dc-97c1-0d74be05b5d3,Harrisburg Bus Station,40.26258,-76.878574,HBG6,,,,,,,America/New_York,
7727eb32-9206-4738-8ac9-decedbec2996,Superior (Southwest 24 Hr Towing),33.287489,-111.105056,SUP6,,,,,,,America/Phoenix,
775c212f-7a8b-46e7-93cf-162d9976c8a0,Concord (Concord Coach Lines),43.212688,-71.534645,CNH6,,,,,,,America/New_York,
775d061d-3833-4263-a600-79e9ac0e87d6,Baton Rouge Bus Station,30.450089,-91.176483,BTR6,,,,,,,America/Chicago,
7760e861-7041-47b7-a171-149a5d69ffd7,Max Meadows (A81 Travel Plaza),36.96603,-80.85321,WYV6,,,,,,,America/New_York,
77828001-5a2d-4769-8a09-59df7e3025d8,Roseville Bus Stop,38.750145,-121.28606,RSV6,,,,,,,America/Los_Angeles,
78f5b401-6104-425e-9001-8ffa81c04044,Big Spring (Shell),32.233605,-101.524308,BST6,,,,,,,America/Chicago,
791b9bdb-b81c-4a42-b909-aea3724e9cb1,Bellows Falls Bus Stop,43.135998,-72.444804,BWS6,,,,,,,America/New_York,
79685b14-530b-47e5-85dc-26ccf93c96cb,Waco,31.549433,-97.122895,2WS,,,,,,,America/Chicago,
796dcd59-4e13-475d-8c9c-2fa60fc4cf25,Carlsbad (Road Runner Express),32.418268,-104.226764,CBD6,,,,,,,America/Denver,
796f0b0f-6d34-41bd-9084-4f942427576f,Madisonville (Motel 6),37.256047,-87.450266,CPM6,,,,,,,America/Chicago,
798fb9ee-0626-427d-93f0-8c2c0d1f4e4d,Daytona Beach Bus Station,29.209183,-81.022789,DAB6,,,,,,,America/New_York,
7a0fe292-988e-49d4-a93e-4bec62408b09,Avon Park (Murphy Express),27.606064,-81.515196,ANK6,,,,,,,America/New_York,
7a39d696-4ddc-447d-af67-631c340d4789,Nuevo Laredo Bus Station,27.462594,-99.518168,NLX6,,,,,,,America/Matamoros,
7a436a41-094e-4faf-99ab-46e1790cc6a4,Edmonton (Belvedere Transit Centre),53.588374,-113.435161,7EM,,,,,,,America/Edmonton,
7aa2a4ad-52f3-4560-97d4-aa69edfe58b7,Meridian Bus Stop,32.363811,-88.696351,MER6,,,,,,,America/Chicago,
7af18177-2f62-461c-a83d-df719e9f8e8d,George West (Stripes),28.337916,-98.02926,GRG6,,,,,,,America/Chicago,
7b289f38-034d-4365-8b37-4345bee2e895,Wichita Bus Stop,37.684528,-97.333839,WTA6,,,,,,,America/Chicago,
7b2e67f5-b666-4630-b6a1-508f7dcd8dd7,Perth (ON),44.90686,-76.2698,7PER,,,,,,,America/Toronto,
7b601b97-6851-4303-8153-cea0ff694761,Bassano,50.791074,-112.449596,7BS,,,,,,,America/Edmonton,
7beab911-2c38-4cb4-935d-05162a5b3074,Marshall (Pony Express Travel Ctr),32.490326,-94.35461,MSH6,,,,,,,America/Chicago,
7bf58609-d116-45bc-95b4-da57bba8a1f4,Lee (Mobil Gas Station),42.309617,-73.252105,LLE6,,,,,,,America/New_York,
7c194093-3b58-4d4b-a65b-13691cd30bb9,Roanoke Bus Stop,37.27275,-79.94675,RON6,,,,,,,America/New_York,
7c1b2165-6828-4e9f-9e22-f0b8338eb098,Chickasha Travel Plaza,35.05957,-97.96196,CCK6,,,,,,,America/Chicago,
7c830901-a422-4c5d-9df7-17f4dee9bd5a,Warrensburg Chamber Of Commerce,38.762474,-93.740454,WRN6,,,,,,,America/Chicago,
7d01e5ea-5c7d-4dc8-9b6d-4afad1891d61,Saltillo (Mall Paseo Villalta),25.476648,-100.975678,SCA8,,,,,,,America/Mexico_City,
7d2e6c99-dc26-4de7-9095-f675fcf55339,Madera Bus Stop,36.962722,-120.060155,MDA6,,,,,,,America/Los_Angeles,
7d4e1305-f154-466a-a119-fdd1e59f4790,Henderson (FSK Foodmart),32.164426,-94.786082,HDS6,,,,,,,America/Chicago,
7d5e801b-63e5-48c0-bb87-94254af807f5,Xb Lacolle Route 15,45.008825,-73.452358,UCC6,,,,,,,America/New_York,
7dbf1785-4e14-49d1-958c-10e67b84d13a,Palmview (Stripes),26.231283,-98.361607,MIS6,,,,,,,America/Chicago,
7dd5a87b-cb4d-4214-8a0e-e8a4f9fcde5c,Big Pine Key,24.669772,-81.363526,BPB6,,,,,,,America/New_York,
7de66566-d8e1-484b-8a2a-a7cdf9ec0613,Anniston (Amtrak Train Station),33.649247,-85.832163,ANS6,,,,,,,America/Chicago,
7e3522dc-e384-4f70-9860-1feaeb57c380,Athens (Shell),32.205108,-95.870052,ATT6,,,,,,,America/Chicago,
7f153af2-fced-4495-aec8-9eae46c3c494,Bluefield Bus Stop,37.26292,-81.24035,BLU6,,,,,,,America/New_York,
7f29203a-6b51-43cd-8de5-5d349f4a0516,Reserve,30.055047,-90.560254,LLL6,,,,,,,America/Chicago,
7f5e82b4-d9f7-4985-8623-2a1c6348e5ce,Amarillo Multimodal Transfer Sta,35.21101,-101.85529,AMR6,,,,,,,America/Chicago,
7fb24630-a943-48e0-825e-833f8085327a,Suisun City Bus Stop,38.242928,-122.04159,SSC6,,,,,,,America/Los_Angeles,
8034caa3-728f-4b45-ae26-20ab08bacd49,Richmond Hill Centre,43.839908,-79.425737,7RH,,,,,,,America/Toronto,
80975130-a40c-4c3f-9914-bf289eb0bdde,Bakersfield Train Station,35.372129,-119.009854,BKF6,,,,,,,America/Los_Angeles,
80c046fc-caf5-4b1a-883a-32d2cc05bd22,"Southampton, ON",44.49066,-81.376059,7SO,,,,,,,America/Toronto,
80e2598b-ee4e-4b2e-995c-47eb84b2ff33,Americus,32.07306,-84.21882,AMC6,,,,,,,America/New_York,
812f0fb3-c1ce-4ac1-82a8-0b25b9a1b028,"Lebanon, IN",40.045411,-86.485138,LBN6,,,,,,,America/New_York,
82219756-6ff4-4c34-9255-b36ce6862fac,Tijuana(Hotel City Express),32.53057,-116.95689,TMX6,,,,,,,America/Tijuana,
825e9563-612a-40ce-92fb-2fb8b09de8ef,Port Lavaca (N Go Food Mart),28.614826,-96.638056,PLV6,,,,,,,America/Chicago,
82c4d19c-649e-4e9a-8516-a5c7260f199b,Rocky Mount Bus Stop,35.938082,-77.797919,ROM6,,,,,,,America/New_York,
835fdbe6-3b47-4d6c-bf38-f1d14545c21d,Gainesville (Chevron),33.646109,-97.155357,GAI6,,,,,,,America/Chicago,
837e2757-6539-4dbd-851e-b5fb1da4d7ad,Lansing (Delta Center),42.738154,-84.632555,5LL,,,,,,,America/New_York,
84c0077c-ed3a-48af-9f30-1aad7c8b3fa2,New York City Chinatown (28 Allen St),40.715652,-73.991992,6NY,,,,,,,America/New_York,
84c57223-2c06-4699-a13c-f0d0e0f346fe,Aberdeen (MARC Train Station),39.508405,-76.163816,ARB6,,,,,,,America/New_York,
84f1d68c-5a02-4163-b117-0d55a49f3802,Iowa City,41.656638,-91.533685,ICY6,,,,,,,America/Chicago,
851706ad-714c-4cb3-b031-bdc648cc22cc,Hempstead Bus Station,40.710343,-73.625121,LGI6,,,,,,,America/New_York,
85bccde4-b25d-4ced-8528-62f8bce81b49,Horseshoe Valley Resort,44.551113,-79.674436,7HL,,,,,,,America/Toronto,
85d52d04-06bc-4059-9312-226ca54a0ed2,Albemarle (Vac & Dash),35.349388,-80.199847,ALR6,,,,,,,America/New_York,
86cee798-7b07-4eef-98d7-f0dae0562969,Durango (Durango Transit Center),37.272556,-107.882862,DGN6,,,,,,,America/Denver,
86dbed28-2e97-4ce6-adb4-5971c2574d70,Hereford (Stripes),34.829373,-102.369654,HEF6,,,,,,,America/Chicago,
874e656d-7942-4584-862a-7e347213c6e5,Fond Du Lac (WisDOT  Park&Ride 20-20),43.749732,-88.469329,5FD,,,,,,,America/Chicago,
87797c7c-8ce0-4b10-96f4-490600a9ed23,Ardmore (McDonald's),34.188325,-97.169822,ARD6,,,,,,,America/Chicago,
8794ab17-6e3c-46cf-a6af-0214b80caa22,Colorado Springs Tejon Park-N-Ride,38.814882,-104.823923,CSP6,,,,,,,America/Denver,
87a9cec7-53a2-4aef-b94b-a43b1b1d9ffa,Jackson (Union Station),32.301198,-90.191854,JXD6,,,,,,,America/Chicago,
87b73c29-3e21-4ee9-a832-03943a79b6ac,Camden (McDonald's),34.2196,-80.593333,CDS6,,,,,,,America/New_York,
87d91d8e-5bd2-4bb8-a78c-89ed3d34a845,Anderson Bus Stop,34.629018,-82.600886,ADR6,,,,,,,America/New_York,
87f45b16-d212-49e6-8d6c-32894bf28c36,Roma (Stripes),26.407461,-98.981663,RMA6,,,,,,,America/Chicago,
87fd595f-2ec6-445c-a082-3dd133643d82,Raleigh Bus Station,35.805991,-78.61615,RAL6,,,,,,,America/New_York,
88a7af55-1ff7-4ae0-997f-b277d16625e1,New York Midtown West,40.75253,-73.98979,NWY6,,,,,,,America/New_York,
88b5ceaf-1c10-4700-8bf1-9edf77be6798,Wasaga Beach,44.47413,-80.076166,7WB,,,,,,,America/Toronto,
892881a1-ba26-48ee-be3c-9ff7c292a131,Marked Tree (Jordans Quick Stop),35.531021,-90.427298,MKM6,,,,,,,America/Chicago,
89336107-e3e1-4231-9186-50b65e497ae7,Coalinga (Valero Gas Station),36.254759,-120.250313,CLJ6,,,,,,,America/Los_Angeles,
89573024-1c92-404d-a46c-9dfb81bdd13f,Richmond (E Grace St & Crane St),37.535911,-77.426483,6DR,,,,,,,America/New_York,
89bfbbd4-0af4-4390-bfc0-605323f8a553,Norcross,33.929774,-84.175281,4NC,,,,,,,America/New_York,
89ed6f6e-dba2-4e6c-880a-d848aa600470,Cortland (City Office Building),42.601077,-76.176439,CRT6,,,,,,,America/New_York,
8a271039-5244-4745-a032-927f2bdafe2e,"Huntsville, AL",34.61966,-86.5679,HTV6,,,,,,,America/Chicago,
8acd6a7d-3aa4-4ca0-bb72-a36fe6b68d4b,Philadelphia,39.96072,-75.141096,PHL6,,,,,,,America/New_York,
8b80cbb9-c6cf-49ae-97f2-7fac63298482,Lafayette (Lousiana),30.251665,-92.03766,4LF,,,,,,,America/Chicago,
8bdbca64-befc-4b61-80e2-73c3bf77230b,Lima Regional Transit Authority,40.741072,-84.10283,LMA6,,,,,,,America/New_York,
8c26f6e8-2d31-4d46-adcc-da2cd3d01893,Greensboro Bus Stop,36.069119,-79.788499,GBO6,,,,,,,America/New_York,
8c8010a1-6fa3-411b-9b1e-459e9f3ef69b,Kilgore (E-Z Mart),32.44083,-94.93116,KGK6,,,,,,,America/Chicago,
8cd7aeaa-229d-4da2-af3f-864e5814fdba,"Cambridge, OH (Shell Gas Station)",40.002735,-81.577167,CMB6,,,,,,,America/New_York,
8d0cd333-d97e-4c77-bbcd-5f168a9c83b0,Salt Flat (Salt Flat Cafe),31.744971,-105.08087,SAF6,,,,,,,America/Denver,
8d386fdc-3ce5-47ad-b3b6-2ba01495c27e,Tifton Bus Stop,31.450142,-83.507245,TFT6,,,,,,,America/New_York,
8da88d9b-0dbc-48f6-83cd-f2fd81a0a85e,Lewistown (Square Cafe & Bakery),40.597203,-77.574507,LIS6,,,,,,,America/New_York,
8dbe6d92-c705-4a59-bc09-41a297687de2,Columbia (Wabash Station),38.953658,-92.32619,CUC6,,,,,,,America/Chicago,
8e5ba9c0-fbe9-4e29-8663-9268fee0ff6e,Arcadia (The Tree of Knowledge),27.216279,-81.860082,RCA6,,,,,,,America/New_York,
8ed3df18-fd69-4af7-88f3-5560ab941da7,Chicago Bus Station,41.874847,-87.643517,CHD6,,,,,,,America/Chicago,
8f32bab1-5814-47a5-a536-e029c765adde,Oak Hall (T'S Corner Exxon),37.945646,-75.540168,OHL6,,,,,,,America/New_York,
90178b4e-6641-496b-9648-a3d90f816ef8,Del Rio (Stripes),29.37901,-100.904292,DEL6,,,,,,,America/Chicago,
90179085-f1e7-4f86-9330-b695b02ae4fd,Kinston (Lunch Box),35.261206,-77.572996,KSN6,,,,,,,America/New_York,
9078e118-61cd-45ed-b1ef-5dc61a4aaf56,Concho Valley Transit District,31.468795,-100.44077,SAO6,,,,,,,America/Chicago,
912aa3f4-c241-46e3-9978-0f07fc6d1290,Minneapolis Bus Station,44.9811,-93.2758,MSD6,,,,,,,America/Chicago,
9214945f-03eb-4d51-9d3b-872ad7358bf7,Danville Mass Transit,40.127274,-87.628474,DAN6,,,,,,,America/Chicago,
921e87cb-765a-4f1d-a096-2bef30de69c4,Stamford Bus Stop,41.046492,-73.541935,SMD6,,,,,,,America/New_York,
925e377a-a621-4652-b639-fea7e2c81613,Phoenix Bus Station,33.435899,-112.035612,PHX6,,,,,,,America/Phoenix,
92cfaa55-50dd-4d90-943e-3b2b6507b441,Lufkin Brazos Transit District,31.337042,-94.729728,LKF6,,,,,,,America/Chicago,
92f31619-b669-4f01-a53d-b9db5b624ecf,Wheeling Bus Stop,40.065068,-80.723493,WHL6,,,,,,,America/New_York,
942b064b-fe3c-4095-aabe-4c7c63bd99aa,Fresno Bus Station,36.738537,-119.782743,FRS6,,,,,,,America/Los_Angeles,
9455942b-3749-4250-9d79-336bd4897b6b,Raton (Amtrak Station),36.900986,-104.438423,RAT6,,,,,,,America/Denver,
9471ab10-9126-4e11-bbd6-a68d819dd316,Youngstown Bus Stop,41.102703,-80.654122,YGS6,,,,,,,America/New_York,
94868852-6df4-4a31-b204-a43d824bc530,Laredo (Truck Movers),27.771882,-99.437153,LDO6,,,,,,,America/Chicago,
94e020ac-8597-4f98-ac63-ecaa17f6f1d2,León (Soriana Hiper Maravillas),21.140399,-101.633923,LGA8,,,,,,,America/Mexico_City,
9518237b-bc19-4564-bb4c-c9a74be5b39c,Sudbury (Ontario Northland Terminal),46.504785,-80.938454,7SU,,,,,,,America/Toronto,
9527660c-4bcd-4c39-ad3d-9c721852a82a,Niagara-on-the-Lake,43.252001,-79.065289,7NL,,,,,,,America/Toronto,
954e7e51-e123-45e1-aa8e-14821a8cf491,Okotoks - Aldersyde,50.69329,-113.88447,7OO,,,,,,,America/Edmonton,
956d6470-f1a9-41fe-a2d5-d9874e6a2bb9,Macon Bus Station,32.833075,-83.62494,MAC6,,,,,,,America/New_York,
95907a34-10c9-410d-9195-5234cd0232b4,Everett Bus Stop,47.975513,-122.19785,EVR6,,,,,,,America/Los_Angeles,
961f07da-89de-477a-beb1-360803ea0fb1,Monroe (Taylor Wrecker Service),33.79599,-83.70856,MON6,,,,,,,America/New_York,
9649fe35-8c1a-45af-adf7-93f33d11d2c6,Richmond (Main St Station Plaza),37.533897,-77.429579,RVA6,,,,,,,America/New_York,
966a59a9-96e3-4158-a61c-86b9a6d37007,Brunswick (Perry Ln Rd/Venture Dr),31.246053,-81.507993,4BZ,,,,,,,America/New_York,
96a7da99-17e9-452f-83dc-8367b2bef9a5,"Asheville, NC",35.59201,-82.556327,ASN6,,,,,,,America/New_York,
96c636e0-0abe-4119-be32-e1b2f932113e,Blytheville (Sunoco),35.888778,-89.918273,BTV6,,,,,,,America/Chicago,
96f408ea-c731-4fb3-a9d3-721f7cf31dd1,Newark (NJ),40.734979,-74.164306,NWK6,,,,,,,America/New_York,
971276fe-7e69-4805-aab8-33f339c72766,Rockingham (King Fuel Station),34.927495,-79.759047,RKC6,,,,,,,America/New_York,
973a4339-868b-4c4a-bf84-279644a02f14,Monterrey (Escobedo Greyhound),25.770978,-100.291948,MMX6,,,,,,,America/Monterrey,
976ab6b8-30dc-4cc5-ae3a-121740fd7b5a,"Riverside (Parking Lot 30 - University of California, Riverside)",33.969962,-117.331905,UCR,,,,,,,America/Los_Angeles,
97c22f12-ce37-4444-b47f-92fe273faf90,Altoona Bus Station,40.514746,-78.401872,ALT6,,,,,,,America/New_York,
97e3aa8b-b5af-492d-8944-b902a37847d2,Lake Louise Village (Shell),51.426503,-116.177159,7LS,,,,,,,America/Edmonton,
985f5ded-077c-44f2-840a-09873a0bdf07,Windsor (International Transit Centre),42.317964,-83.042982,7WI,,,,,,,America/Toronto,
98e129b3-b0b6-4f96-9ae6-65f2b00d7d3d,Niagara Falls Canada (Table Rock),43.077434,-79.079297,7NF,,,,,,,America/Toronto,
990919e2-39d1-4ff0-849e-1639c19307c6,Rochester Bus Stop,43.159365,-77.605576,ROC6,,,,,,,America/New_York,
99359dd9-561b-4c5c-92cd-3cffa1f8a48f,Midland (Stripes),31.915726,-102.216005,ODE6,,,,,,,America/Chicago,
9958e342-bb3a-4a81-94dd-21eec40d6f24,Medicine Hat (HUSKY/ESSO),50.025087,-110.699904,7MH,,,,,,,America/Edmonton,
9959e71e-0f21-4c79-a12b-ec8aad6be503,Van Buren/ Ft Smith Bus Depot,35.422301,-94.334419,FSM6,,,,,,,America/Chicago,
99e122a6-9b48-445f-a6be-d50f107314a4,Houston (Agencia Autobuses),29.71731,-95.499319,HOS6,,,,,,,America/Chicago,
99e6c9ec-2189-4b91-a8ff-120055eebbc0,Matehuala (Tortas Las Sevillanas),23.62627,-100.641126,MSA8,,,,,,,America/Monterrey,
9a1b39b7-d723-4cf7-85dd-a34e3521568c,Buffalo,42.88366,-78.872034,BUF,,,,,,,America/New_York,
9a1ebcb4-a980-4bc0-890f-41c5525c8e16,El Paso Bus Station (W San Antonio St),31.756748,-106.490151,ELP6,,,,,,,America/Denver,
9a7e28c5-1b50-4701-96ab-2883ce36768a,Bloomington (IN),39.164386,-86.533301,BMNN,,,,,,,America/New_York,
9b1181ac-f128-4788-b0c1-bb511a012cf3,Banff,51.176395,-115.569449,7FF,,,,,,,America/Edmonton,
9b69a939-3ecb-11ea-8017-02437075395e,Huntington Park,33.974408,-118.227985,UHP,,,,,,,America/Los_Angeles,
9b69de17-3ecb-11ea-8017-02437075395e,Goshen (FlixBus),36.349127,-119.427174,0VS,,,,,,,America/Los_Angeles,
9b6a920f-3ecb-11ea-8017-02437075395e,College Station,30.61827,-96.32228,2TA,,,,,,,America/Chicago,
9b6aadb6-3ecb-11ea-8017-02437075395e,Ithaca,42.4385,-76.4975,6IT,,,,,,,America/New_York,
9b6aaed4-3ecb-11ea-8017-02437075395e,New Haven,41.298704,-72.925962,6NH,,,,,,,America/New_York,
9b6aaf23-3ecb-11ea-8017-02437075395e,Albany (SUNY Albany),42.68753,-73.82206,6AL,,,,,,,America/New_York,
9b6abe76-3ecb-11ea-8017-02437075395e,Daytona Beach,29.212546,-81.096822,4DB,,,,,,,America/New_York,
9b6abe93-3ecb-11ea-8017-02437075395e,Jacksonville (Downtown),30.330041,-81.672958,JAX6,,,,,,,America/New_York,
9b6ac0d1-3ecb-11ea-8017-02437075395e,Queens Jamaica (144th Pl/Archer Ave),40.700023,-73.809786,6QJ,,,,,,,America/New_York,
9b6ac3f0-3ecb-11ea-8017-02437075395e,University of South Florida,28.064836,-82.416123,4US,,,,,,,America/New_York,
9b6acb6a-3ecb-11ea-8017-02437075395e,Cincinnati (Downtown),39.107228,-84.505677,5CI,,,,,,,America/New_York,
9b6acba4-3ecb-11ea-8017-02437075395e,Indianapolis (E Washington St),39.76709,-86.153802,5IN,,,,,,,America/New_York,
9b6ad42f-3ecb-11ea-8017-02437075395e,Seattle (University of Washington),47.656283,-122.316081,1UW,,,,,,,America/Los_Angeles,
9b6ad623-3ecb-11ea-8017-02437075395e,Toronto (Harbourfront),43.640654,-79.380659,7TO,,,,,,,America/Toronto,
9b6ad688-3ecb-11ea-8017-02437075395e,Sarasota Cattlemen Transfer Center,27.322375,-82.450819,4SS,,,,,,,America/New_York,
9b6af8a7-3ecb-11ea-8017-02437075395e,University of Massachusetts Amherst,42.388321,-72.526236,AMH6,,,,,,,America/New_York,
9b6afeb0-3ecb-11ea-8017-02437075395e,"Robert B Kennedy Bus Transfer Center (Lowell, MA)",42.636354,-71.314502,6LW,,,,,,,America/New_York,
9b6b011a-3ecb-11ea-8017-02437075395e,New Brunswick (Downtown),40.496371,-74.445768,6RU,,,,,,,America/New_York,
9b6b07ab-3ecb-11ea-8017-02437075395e,Ottawa (Gloucester Centre),45.431949,-75.610329,7OW,,,,,,,America/Toronto,
9b6b0e3a-3ecb-11ea-8017-02437075395e,Buffalo Niagara International Airport,42.934299,-78.730243,6BN,,,,,,,America/New_York,
9b6b246c-3ecb-11ea-8017-02437075395e,Fort Lauderdale International Airport,26.072536,-80.141642,4FA,,,,,,,America/New_York,
9b6b2a4c-3ecb-11ea-8017-02437075395e,Atlanta Airport,33.640833,-84.446276,4LX,,,,,,,America/New_York,
9b6b2a99-3ecb-11ea-8017-02437075395e,Rockford(East Side Transfer Center),42.274693,-88.959501,RFE6,,,,,,,America/Chicago,
9b6b2add-3ecb-11ea-8017-02437075395e,Janesville (Park and Ride),42.672615,-88.981802,5JV,,,,,,,America/Chicago,
9b6b2b43-3ecb-11ea-8017-02437075395e,Eau Claire (McDonald's),44.842418,-91.595397,5EU,,,,,,,America/Chicago,
9b6b2b7b-3ecb-11ea-8017-02437075395e,Oshkosh (Washburn Park and Ride),43.98778,-88.583974,5OH,,,,,,,America/Chicago,
9b6b2f06-3ecb-11ea-8017-02437075395e,Miami Beach,25.813276,-80.122939,4SB,,,,,,,America/New_York,
9b6b3e4e-3ecb-11ea-8017-02437075395e,St. Petersburg (FL),27.771086,-82.64607,4SP,,,,,,,America/New_York,
9b6b5071-3ecb-11ea-8017-02437075395e,Washington DC (Dupont Circle),38.911322,-77.044588,6DU,,,,,,,America/New_York,
9b6b6fe7-3ecb-11ea-8017-02437075395e,Temple,31.103775,-97.357815,2TP,,,,,,,America/Chicago,
9b6b7af4-3ecb-11ea-8017-02437075395e,Tucson Downtown,32.22392,-110.968566,0TU,,,,,,,America/Phoenix,
9b6b7b95-3ecb-11ea-8017-02437075395e,Tucson (East),32.222499,-110.872578,0TE,,,,,,,America/Phoenix,
9b6ba5ac-3ecb-11ea-8017-02437075395e,Cape Girardeau,37.308957,-89.552941,5CG,,,,,,,America/Chicago,
9b6badf8-3ecb-11ea-8017-02437075395e,Hamilton (McMaster University),43.258028,-79.916694,7HA,,,,,,,America/Toronto,
9b6bae1e-3ecb-11ea-8017-02437075395e,Mississauga (Duke of York Blvd),43.590347,-79.645219,7MS,,,,,,,America/Toronto,
9b6bb9a3-3ecb-11ea-8017-02437075395e,Ann Arbor,42.287771,-83.743152,5AB,,,,,,,America/New_York,
9b6bbbe0-3ecb-11ea-8017-02437075395e,Kalamazoo Bus Stop,42.295073,-85.583982,KLZ6,,,,,,,America/New_York,
9b6bc1d3-3ecb-11ea-8017-02437075395e,Grand Rapids (The Shops at Centerpoint),42.916542,-85.575686,5GR,,,,,,,America/New_York,
9b6bc31f-3ecb-11ea-8017-02437075395e,London (Western Univ.),43.008685,-81.265592,7LO,,,,,,,America/Toronto,
9b6bc8c8-3ecb-11ea-8017-02437075395e,Los Angeles (Hollywood / Highland),34.101082,-118.341445,0HO,,,,,,,America/Los_Angeles,
9b6be497-3ecb-11ea-8017-02437075395e,Dayton (Huber Heights),39.868238,-84.138003,5DY,,,,,,,America/New_York,
9b6bf0e7-3ecb-11ea-8017-02437075395e,Baldwin Park,34.072577,-117.978287,0BW,,,,,,,America/Los_Angeles,
9b6bfd56-3ecb-11ea-8017-02437075395e,Boston (South Station),42.350469,-71.05618,BOS6,,,,,,,America/New_York,
9b6c09d7-3ecb-11ea-8017-02437075395e,Kingston (Downtown) ,44.233794,-76.481629,7KG,,,,,,,America/Toronto,
9b6c1714-3ecb-11ea-8017-02437075395e,Cambridge (MA),42.394018,-71.141704,6CM,,,,,,,America/New_York,
9b6c1745-3ecb-11ea-8017-02437075395e,Brookline,42.342586,-71.122005,6BI,,,,,,,America/New_York,
9b6c1e26-3ecb-11ea-8017-02437075395e,Queens Flushing (Kissena Blvd/Main St),40.757899,-73.828607,6QN,,,,,,,America/New_York,
9b6c1f51-3ecb-11ea-8017-02437075395e,Greenville (Raceway Gas Station),34.83035,-82.305929,4GR,,,,,,,America/New_York,
9b6c1f6f-3ecb-11ea-8017-02437075395e,Spartanburg,34.999917,-82.004677,4SR,,,,,,,America/New_York,
9b6c1fbe-3ecb-11ea-8017-02437075395e,Durham,35.996367,-78.906872,4DU,,,,,,,America/New_York,
9b6c2630-3ecb-11ea-8017-02437075395e,Phoenix Glendale (59th Ave / W. Hayward),33.550667,-112.186056,0GD,,,,,,,America/Phoenix,
9b850136-6cc5-4982-b6aa-5b7209f432c9,Syracuse Bus Station,43.076631,-76.169431,SYR,,,,,,,America/New_York,
9be230ab-291c-43cd-a4c1-3955b8862965,St. Catharines (Downtown),43.160278,-79.244891,7SC,,,,,,,America/Toronto,
9c52c9c0-f4ff-450e-83c0-cdf54baf65f6,Monroe (Quickway),32.47467,-92.08177,MOR6,,,,,,,America/Chicago,
9caca472-eb38-45fd-a5f9-43894add57a8,Binghamton,42.101318,-75.910378,BGH6,,,,,,,America/New_York,
9d240d92-7ef7-4d4f-8eff-1b9d8538b283,Chicago (95th / Dan Ryan),41.722328,-87.624734,CHA6,,,,,,,America/Chicago,
9d2ef0b6-345f-4dbc-b43c-24fb7a6407c9,Athens (Exxon),35.463231,-84.64461,ATS6,,,,,,,America/New_York,
9d9c1bac-0c2e-426b-b448-bf9db1d509aa,Camp Verde (McDonald's),34.57546,-111.884141,CVD6,,,,,,,America/Phoenix,
9dc36fd2-add2-465c-b814-d4279bf02050,Port Severn,44.806039,-79.735529,7PS,,,,,,,America/Toronto,
9e67280f-1256-42f4-9d1d-701cb6fe6ef5,Katy (Food Mart),29.784433,-95.820967,KYY6,,,,,,,America/Chicago,
9e698b15-cdee-400b-bb9b-a590ea89fc5d,Laredo Bus Station,27.505143,-99.50852,LRO6,,,,,,,America/Chicago,
9e907ae9-6627-44c7-9d70-cffb3f81bd84,Kingsville (Food Store),27.507276,-97.841224,KGS6,,,,,,,America/Chicago,
9edd92b9-b546-4e1d-b1db-4834d04879ac,Frisco Transit Center,39.588757,-106.09731,FSC6,,,,,,,America/Denver,
9ef5d31e-1767-488a-946f-fc92a62ceaa9,Sebastian (Chevron),27.766974,-80.548598,SAT6,,,,,,,America/New_York,
9f97f80b-c2a0-4df8-bfa1-277a95094ce6,State College Regional Airport,40.85141,-77.852798,SCA6,,,,,,,America/New_York,
9faf6aba-54bd-4440-b486-36d7e00808b7,Bangor Park & Ride,44.787884,-68.811782,BGV6,,,,,,,America/New_York,
9fb8e3f5-4f6b-4388-a415-2ce7e47201ce,Statesboro Bus Stop,32.39709,-81.82107,STS6,,,,,,,America/New_York,
9fd1d802-f6fb-471e-9e8e-2814bb774898,Palm Springs North,33.902607,-116.544369,UPL,,,,,,,America/Los_Angeles,
9ff30d53-eb2f-48f4-a952-1e815b3bc425,Lubbock Citibus DT Transfer Plaza,33.583954,-101.843795,LUB6,,,,,,,America/Chicago,
a0c14b7e-367b-4bbb-b3c6-71969caa4137,Phoenix Glendale Bus Stop,33.538261,-112.11558,GAZ6,,,,,,,America/Phoenix,
a11b3733-35d7-4842-9874-94a35cf8acd1,Live Oak (Food Mart),30.294058,-82.979523,LOK6,,,,,,,America/New_York,
a13803a4-b3eb-447c-a6a9-ddcc112b7f48,Bethesda,38.983884,-77.091886,6BE,,,,,,,America/New_York,
a13f6ea7-5e16-40a5-bf96-e0b4b4386e68,Eugene (University of Oregon - Jaqua Academic Ctr),44.045559,-123.068761,1UJ,,,,,,,America/Los_Angeles,
a1fd8656-1304-462c-b778-185c570660c4,Tyler (City of Tyler),32.354642,-95.299472,TYL6,,,,,,,America/Chicago,
a2c5a800-ba8b-4a83-a444-1223f8c8794c,Karnes City (Stripes),28.865358,-97.894583,KNR6,,,,,,,America/Chicago,
a2e451ef-eece-4973-b195-c09e2d096848,Jackson Bus Stop,42.246052,-84.406616,JAC6,,,,,,,America/New_York,
a2fca845-6058-424e-8d57-ed947fd59ee8,Tulare Bus Stop,36.21197,-119.347333,TLR6,,,,,,,America/Los_Angeles,
a3d7705d-bcfd-48d8-a8c9-e35c16ec13a2,Markham - Cornell Bus GO,43.880894,-79.231305,7TM,,,,,,,America/Toronto,
a43ec6a2-1305-4940-a877-ed3b8691795a,Blue Mountain Village,44.504171,-80.311026,7BM,,,,,,,America/Toronto,
a487e4e5-26a8-4073-a68d-d3868a835a15,Harmony Transfer Centre,40.52418,-104.99469,FON6,,,,,,,America/Denver,
a494ea0b-1589-4225-97c4-875445c67896,Austin Eastside Bus Plaza,30.25187,-97.69835,AUS6,,,,,,,America/Chicago,
a4c21f12-804f-4a04-a741-6dfc434947ca,Tucumcari (McDonald's),35.15464,-103.724346,TCM6,,,,,,,America/Denver,
a52137e0-853f-454c-adf0-9f25f11c3726,Havre De Grace (7-Eleven),39.554301,-76.101835,HAV6,,,,,,,America/New_York,
a699439f-0eee-4180-aa58-1f5bec473943,Willcox (Texaco),32.2657,-109.84221,WLX6,,,,,,,America/Phoenix,
a7137a16-4794-48ce-84b9-0b4bd47dd62b,Tacoma (G St & Puyallup Ave),47.240512,-122.424745,1TA,,,,,,,America/Los_Angeles,
a816e9fc-6166-4b87-b059-3ac40dafb340,Raleigh (New Bern Ave),35.797218,-78.576784,4RA,,,,,,,America/New_York,
a83e765e-322a-4513-9b2d-513d2de832c2,Manvel (Chevron),29.483328,-95.40657,MNV6,,,,,,,America/Chicago,
a854591d-b911-41a7-8b09-de183524b422,Sanford (Sam's Place),35.478144,-79.181028,SFO6,,,,,,,America/New_York,
a8778018-ec09-45da-86f3-1ce451806146,Cuba (Phillips 66 Gas Station),36.023758,-106.957948,CUB6,,,,,,,America/Denver,
a8902636-ae83-4138-99f5-d64697355a31,Augusta (Concord Coach Lines),44.35551,-69.799034,UGU6,,,,,,,America/New_York,
a8a5531f-6f05-4c84-abfb-90d96a018c7c,Shelby (Khodal Mini Mart),35.29233,-81.55397,SLY6,,,,,,,America/New_York,
a92ad86e-d379-4a9d-8de9-8c1d22d477f7,Doylestown SEPTA Station,40.305942,-75.131425,DLT6,,,,,,,America/New_York,
a99fba30-7008-4159-8a72-bee000a9d4d4,Seligman (Chevron),35.30959,-112.85694,SGM6,,,,,,,America/Phoenix,
aa033b24-6be9-4145-8611-e598974bc552,Athol MA,42.592482,-72.230028,ATL6,,,,,,,America/New_York,
aa36a342-44a4-47df-8929-6515ec608efc,Des Moines,41.62725,-93.593472,DSM6,,,,,,,America/Chicago,
aafae0fb-8d4d-4c26-bd2b-ad3963ee0045,Toronto (Union Station Bus Terminal),43.644153,-79.377473,TOR6,,,,,,,America/Toronto,
ab06606b-233e-46be-974b-ca45c6dee1d7,Milwaukee Intermodal Station,43.034447,-87.918228,MKE6,,,,,,,America/Chicago,
ab379bbd-ae4e-407d-9ee3-945b21b9fda1,Dothan (Raceway),31.203195,-85.420054,DOT6,,,,,,,America/Chicago,
ab47b191-801d-4cc3-83d4-0f4e3b514b88,Flagstaff Train Station,35.197635,-111.649931,UFG,,,,,,,America/Phoenix,
ab615f55-9409-4216-a06f-5cf7769812c5,Dallas Bus Station,32.853309,-96.879878,DLD6,,,,,,,America/Chicago,
ab680497-48dd-4e7e-b0cc-1b984bcdeb90,McKinney (New Midway Convenience),33.210129,-96.637054,MKT6,,,,,,,America/Chicago,
ab6dfbb9-a953-47d1-8653-4e4e53252214,Key Largo Bus Stop,25.09417,-80.441336,KLR6,,,,,,,America/New_York,
ab907c33-65f8-4779-8d42-cab5db883261,"Mabank, TX",32.33126,-96.15004,MBK6,,,,,,,America/Chicago,
ac0eec03-6c53-491e-9527-c5a688cff604,Fitchburg MA,42.581066,-71.792956,FIT6,,,,,,,America/New_York,
ac2e2ef8-a490-4650-ad4a-7f7c92bca5fe,Arlington (Rosslyn),38.894715,-77.069121,6RL,,,,,,,America/New_York,
ac3b1889-a311-4cb5-8516-ce6a7c8d85f7,Tracy Transit Center,37.734261,-121.42508,TCT6,,,,,,,America/Los_Angeles,
ac6db236-2c5b-4822-ab80-dddc68f50399,Peridot (Apache Burger Travel Ctr),33.301961,-110.470686,PIP6,,,,,,,America/Phoenix,
ac9055ea-84fb-4a65-9f19-7ae17bd6b6df,Corning,42.142275,-77.051341,COC6,,,,,,,America/New_York,
acb94a08-0b28-4d03-8730-c8279b512da1,Los Angeles Union Station,34.055137,-118.233135,LAD6,,,,,,,America/Los_Angeles,
acd327c1-0c2d-443a-a32d-6b7bf033e1db,Clovis (Cortex Gas),34.37079,-103.196,CLO6,,,,,,,America/Denver,
ad471d0d-a06e-43ac-8e1b-af49e412be4b,Barrie (Downtown),44.387542,-79.689517,7BA,,,,,,,America/Toronto,
ae2dfa15-8d88-4d1d-af9d-78830746d493,Beaumont,30.067525,-94.133281,2BM,,,,,,,America/Chicago,
ae41aaa1-cdb2-4f76-a3b9-c5ba28dfd882,Lordsburg (McDonald's),32.343742,-108.713229,LDS6,,,,,,,America/Denver,
ae4be8dd-9195-4a49-9060-2d55cd04e6e4,Seattle Bus Station,47.59205,-122.326,SEA6,,,,,,,America/Los_Angeles,
ae61bd57-13f7-405e-bb40-bcc25f3a6801,Thatcher (Speedway Gas Station),32.848986,-109.763666,SFF6,,,,,,,America/Phoenix,
ae677713-35ed-479f-b235-4b6d037e016c,Mansfield Bus Stop,40.693922,-82.511521,MSN6,,,,,,,America/New_York,
aee3ec29-a524-4717-bd3f-8c3670c37cb5,Reading (BARTA Transportation Center),40.333985,-75.923583,6RA,,,,,,,America/New_York,
af46fdfc-3041-465c-a8be-a6a11670dfa8,Yuma County Area Transit,32.704013,-114.6073,YUM6,,,,,,,America/Phoenix,
af7f196b-3a23-4dc2-a164-34c89b3504c5,London (Burger King),37.11071,-84.0906,LOD6,,,,,,,America/New_York,
af96f18e-966c-4705-9115-6b63be9e148a,Lewisville (Chevron),33.037186,-97.002082,LWS6,,,,,,,America/Chicago,
afa31db2-033d-4498-858c-c708a7b51c89,Fort Pierce (Love's),27.413925,-80.397842,FTP6,,,,,,,America/New_York,
affbde25-3c66-4198-ba0d-57b13fea4cae,Florence (SC),34.23645,-79.806366,FL4,,,,,,,America/New_York,
b0c37485-e6b5-45d1-81a7-f3d1d6575dfa,Corpus Christi Bus Station,27.795611,-97.402456,CCT6,,,,,,,America/Chicago,
b0d2a317-9818-4343-8df0-9efbd101623f,College Park U of MD Metrorail,38.978349,-76.929078,CLP6,,,,,,,America/New_York,
b140319e-917e-414d-9f72-07534a019243,Kansas City 47Th St Transit Center,39.11365,-94.68587,KSC6,,,,,,,America/Chicago,
b1c6c309-ca72-43e7-a004-b861c4c7b00d,Huntington Bus Stop,38.421788,-82.437812,HTT6,,,,,,,America/New_York,
b22ef81b-dd5c-40ea-af02-8a94210905cc,Eden (Tres Amigos Convenience),31.21648,-99.8396,END6,,,,,,,America/Chicago,
b23f8361-fbc9-414c-aec1-c4c840509e59,Augusta,33.485106,-82.101681,AUU6,,,,,,,America/New_York,
b2e8308e-356e-4dd2-bb5a-58871bd82445,Fort Valley,32.53871,-83.89893,FVG6,,,,,,,America/New_York,
b30651d0-fd2d-453c-9f2a-33b81ae7ca73,Newark (University of Delaware),39.669572,-75.754056,6NK,,,,,,,America/New_York,
b3b43535-9b31-4f08-9362-35c046ef38ef,Opelousas (Texaco),30.5841,-92.05299,OLP6,,,,,,,America/Chicago,
b4085984-8e4c-4206-9f84-244f254b7063,Panama City Beach Bus Station,30.18917,-85.77158,PAC6,,,,,,,America/Chicago,
b46a8b3e-f8da-4aea-a6d8-55c1cf2d2e7c,Easton (Easton Bus Stop),40.68894,-75.2093,ESN6,,,,,,,America/New_York,
b4b6e2de-1e65-43d7-9646-61f3ea36a101,Tijuana (Airport),32.546225,-116.971856,TUJ6,,,,,,,America/Tijuana,
b4e1867f-f967-4064-9ec2-487d026d73f6,Madison (Madison Campus WI),43.071539,-89.397556,MADI,,,,,,,America/Chicago,
b4fb4f7a-ff5c-479d-a707-6db43a379b49,Edmonton (Southgate Transit Centre),53.485917,-113.517341,7ED,,,,,,,America/Edmonton,
b5504d1a-efcf-47d6-8363-e52fd67da03c,Akron Bus Station,41.06995,-81.52282,AKR6,,,,,,,America/New_York,
b5563ae1-0750-48af-8a2e-f6bfe29aafb1,Palacios (Henderson Drive In),28.71359,-96.228799,PLC6,,,,,,,America/Chicago,
b589c91e-bf7a-4a91-b28d-c54f6ba417c4,Clarksville Park & Ride,36.524486,-87.217388,CLK6,,,,,,,America/Chicago,
b669d59e-13a5-40d5-b3fa-24175f2a66a8,Calgary (Crowfoot),51.1259,-114.206,7CR,,,,,,,America/Edmonton,
b6d4f94b-a75b-4807-b674-b83961fa085b,Paducah Bus Station,37.056896,-88.575775,PAD6,,,,,,,America/Chicago,
b7611bac-29c9-4746-95ba-0936084fa2df,Springfield SMTD Transfer Center,39.80069,-89.64103,SNG6,,,,,,,America/Chicago,
b766c8eb-d533-4482-9c82-89c40c2ca3f3,El Monte Bus Stop,34.072231,-118.044947,EMT6,,,,,,,America/Los_Angeles,
b77a90c5-6c5a-4ef2-a431-d900f13f3325,Los Angeles (Lankershim/Magnolia - North Hollywood),34.164976,-118.37604,0NH,,,,,,,America/Los_Angeles,
b77ed073-07b5-40c0-829e-55f58113ecda,Uvalde (Stripes),29.229871,-99.755266,ULL6,,,,,,,America/Chicago,
b7ecf8ef-cc86-406b-9427-b01091cdcf3e,Lawton (LATS Transfer Center),34.606472,-98.394658,LWT6,,,,,,,America/Chicago,
b84fa7c9-ef4c-40d4-b661-4dfedfedebca,Hyattsville New Carrollton Bus Stop,38.946977,-76.872411,NCC6,,,,,,,America/New_York,
b862122f-a501-4ab2-8533-2d0c4429dc48,Ingersoll,43.015743,-80.877443,7IG,,,,,,,America/Toronto,
b86bc54b-e285-4b9a-b5b6-9c745700d663,Cortland (Onvo Travel Plaza),42.587712,-76.130493,5CT,,,,,,,America/New_York,
b8b68f3c-e311-4c45-bb6f-01a81f484651,Moses Lake,47.101465,-119.248217,1ML,,,,,,,America/Los_Angeles,
b9012d89-0805-44de-9402-471a718fec5e,Olympia (Intercity Transit Center),47.046256,-122.899992,1OL,,,,,,,America/Los_Angeles,
b90c4dce-5cc3-4b94-b101-1e1a9a36a70c,Woodbridge Bus Stop,38.658885,-77.247814,WDG6,,,,,,,America/New_York,
b914ef1d-507d-4831-bc1e-0c763ae71c84,Banning Bus Stop,33.9254,-116.882448,BNG6,,,,,,,America/Los_Angeles,
b955b0d5-3f2f-4e1e-b9d7-ea9d39357633,Riviera (Stripes),27.303487,-97.815747,RVR6,,,,,,,America/Chicago,
b9613a1c-e9e2-4170-b8c6-f2ac65dbcd35,"Pickering,ON",43.819379,-79.115427,7PI,,,,,,,America/Toronto,
b987d31c-d740-4ae0-a011-3f64e753e768,Shreveport Bus Station,32.499524,-93.756625,SHR6,,,,,,,America/Chicago,
b9b10ab1-c61c-4f7d-87fb-786a206ddefe,Elkton (Fox Hollow Coffee),39.601242,-75.80204,ETN6,,,,,,,America/New_York,
b9b9bfcd-5e7d-4513-b8c5-23ce5b85730e,Montpelier Transit Center,44.26013,-72.57937,MPE6,,,,,,,America/New_York,
b9fe2679-4bd9-4e7c-b631-a6b71d651803,Plainview (Stripes),34.18471,-101.736229,PIV6,,,,,,,America/Chicago,
ba3eeb98-f7c2-4f64-8187-96e0386524e1,Framingham (Framingham Intermodal),42.277218,-71.417724,FRG6,,,,,,,America/New_York,
baaf12c3-169e-4d69-98a0-84776c149aaf,Nacogdoches (Sunshine),31.569012,-94.676626,NAC6,,,,,,,America/Chicago,
bb05a3f7-5a2c-44cb-8388-2ea394a21c02,Columbus (E Mound St),39.95587,-82.99075,CUS6,,,,,,,America/New_York,
bba6abff-baf8-4bdb-a3ec-9d93b4139dd6,Chicago (Cumberland Farms),41.983843,-87.839304,CUA6,,,,,,,America/Chicago,
bbc78166-2980-4909-95f0-a17435c1c376,Brazos Transit District,30.63984,-96.35032,BCS6,,,,,,,America/Chicago,
bc35fdfd-2dd3-4a76-ba73-dac4881e7187,Boonville (Break Time),38.9382,-92.7447,BNV6,,,,,,,America/Chicago,
bcb5c43e-a362-49db-a226-70ad77c0d31b,Las Vegas Strip (Las Vegas Blvd),36.128564,-115.169982,UVS,,,,,,,America/Los_Angeles,
bd02b7ef-402c-4319-b4f0-1a1a510bc750,Memphis Bus Station,35.061762,-89.992849,MEM6,,,,,,,America/Chicago,
bd2122f4-29dc-4647-b822-8e31fb34f8ba,Gainesville,29.646058,-82.322683,4GV,,,,,,,America/New_York,
bd5757c8-360b-4e44-bb67-69d50ad8ab1b,Kingsland (Gas 2 go),30.789772,-81.652034,KGV6,,,,,,,America/New_York,
bd74611b-fe29-48fc-8536-f9ecefd4cd19,Lawrence Bus Stop,38.95664,-95.26603,LWR6,,,,,,,America/Chicago,
bd7bc652-cc67-4592-8034-d6fcd696c80a,Kingman (South),35.189717,-114.069516,UKM,,,,,,,America/Phoenix,
bd9d6dbe-f924-4ec0-8b49-fc56d09d2f70,Pueblo Transit,38.26859,-104.610481,PUE6,,,,,,,America/Denver,
be3dcda2-9ead-4675-b29b-0e1e3e827ef8,Glendale Bus Stop,34.123639,-118.259027,GLN6,,,,,,,America/Los_Angeles,
be823ce8-d93e-44e3-acf1-40fe05f9942f,Nashville Bus Station,36.152134,-86.773499,NAS6,,,,,,,America/Chicago,
befe6ebf-6b18-4bb4-9d5e-cf0677733340,Bakersfield (McKee Park & Ride),35.274015,-119.022832,UBV,,,,,,,America/Los_Angeles,
bf28d7a1-60dd-4096-956d-aaad15b6dee3,Belleville,44.184499,-77.394583,7BE,,,,,,,America/Toronto,
bfa00e6c-1a04-46a1-bea5-36522b9ffc9e,Brampton Bramalea GO (Steeles Avenue) ,43.704535,-79.691183,7BG,,,,,,,America/Toronto,
c06f6dbc-a18f-4b22-957a-ba3d838f60aa,Opelika 4th Street Station,32.643938,-85.365538,OPL6,,,,,,,America/Chicago,
c0a9c121-03a0-456f-a21d-cab35558a69e,Zelienople (Complete Travel),40.794933,-80.136169,ZIL6,,,,,,,America/New_York,
c21dd70b-e38b-43dd-9d07-018118da3d5c,Turlock (Sinclair),37.505586,-120.85861,TRK6,,,,,,,America/Los_Angeles,
c21ff4f5-7a5d-4630-adc2-69fc5c8c7f27,Dallas Market Center,32.815523,-96.86638,2DM,,,,,,,America/Chicago,
c25f00c4-0942-4b0b-8460-fdc56ec94f9a,Corvallis (Oregon State University - 14th St/Jefferson Way),44.565111,-123.2735,1CV,,,,,,,America/Los_Angeles,
c2e1e5f1-c889-49a2-92a3-98fa0da208f9,Marietta/Kennesaw,34.010585,-84.572287,MRI6,,,,,,,America/New_York,
c325c104-a3c2-4512-9321-3c80b258ef11,Natchitoches (Bayou Soul),31.76728,-93.091345,NAT6,,,,,,,America/Chicago,
c33ec8b0-1717-4c60-ae3b-ae72d3834466,Annapolis,38.97825,-76.496255,6AA,,,,,,,America/New_York,
c35e99e9-beda-4df6-97d7-8cff3bb652e8,Stratford (Cooper Terminal),43.365582,-80.979763,7SF,,,,,,,America/Toronto,
c378ea15-a7b8-4941-8e8e-a46b20756b31,Madison (Dutch Mill Park & Ride),43.047773,-89.306256,5MU,,,,,,,America/Chicago,
c3a4e093-457a-4ae1-8c30-ca040846520d,Palestine (Exxon),31.768185,-95.64454,PAL6,,,,,,,America/Chicago,
c43d68d2-63ee-45ea-94a0-ad2c5ab6f5cf,Lethbridge (Downtown),49.693073,-112.835606,7LE,,,,,,,America/Edmonton,
c4af8af3-217c-4519-a45e-a64b607e846b,Miami Golden Glades,25.921295,-80.215905,4MN,,,,,,,America/New_York,
c4b2204b-b458-446d-a46c-45209ea4cc2b,Kerrville Bus Stop,30.053925,-99.143303,KRV6,,,,,,,America/Chicago,
c51e17a1-43f5-45f8-ae81-96487ad3ad5a,Auburn Bus Stop,32.540207,-85.516168,AUB6,,,,,,,America/Chicago,
c53dd351-4f45-4e4b-b2ad-0278d2a22709,Baton Rouge (Chevron),30.421545,-91.177383,BOB6,,,,,,,America/Chicago,
c5a2ff48-f8f4-4bc5-aa61-9daf9d1fbf38,Cherry Hill,39.943044,-75.02861,6CH,,,,,,,America/New_York,
c5c76d7b-781e-4300-bb52-129604f6c290,Niagara Falls USA,43.084504,-79.06335,6NF,,,,,,,America/New_York,
c61de848-9a49-4ac4-9cca-90612e434c7a,Denton,33.209354,-97.155375,2DN,,,,,,,America/Chicago,
c6c81e40-9869-4dd5-86a7-994b11b467ba,Rock Springs Bus Station,41.577137,-109.25634,RSW6,,,,,,,America/Denver,
c6d122e1-3271-4f53-8f5e-530ad2db90cf,Bellingham Bus Stop,48.720174,-122.51134,BEL6,,,,,,,America/Los_Angeles,
c6e7f9b7-438c-4e40-9bcb-2e80273fa43a,Carleton Place,45.129393,-76.123989,7CPL,,,,,,,America/Toronto,
c6ed8eb2-9b59-421a-b834-5ea15542fc8b,Mount Pleasant (Total Stop Sunoco),33.177436,-94.970016,MLP6,,,,,,,America/Chicago,
c79616b4-1af0-447e-9f89-d2b51b5b39ea,Owen Sound (Transit Terminal),44.568466,-80.941802,7WS,,,,,,,America/Toronto,
c7bd2eed-2e13-4b78-bb4d-ca075d506da5,Edgewater (Marathon Gas),28.950241,-80.946854,EER6,,,,,,,America/New_York,
c7e7404e-565d-4420-abf2-58e724bf4511,Salt Lake City Intermodal Trans Ctr,40.763536,-111.908915,SLC6,,,,,,,America/Denver,
c8105fb0-c920-4bbc-8673-c84b4f357cfb,Oklahoma City Bus Station,35.463758,-97.477415,OKL6,,,,,,,America/Chicago,
c8147647-158b-4bb5-8567-bb824761803a,Gonzales (Cabela's),30.205983,-90.946261,GZS6,,,,,,,America/Chicago,
c8f11342-8a15-4ea9-b4e9-d9821d3880a3,Brunswick (Sunoco),31.1373,-81.57118,BSW6,,,,,,,America/New_York,
c95e30b4-fcff-4233-b5d6-aa40af40aca0,Las Cruces(Road Runner Transit),32.3055,-106.78006,LAC6,,,,,,,America/Denver,
c9fcb650-86a9-45bf-bbc7-88cba2db24f6,Washington (B & L Properties),35.554701,-77.05931,WSC6,,,,,,,America/New_York,
ca059275-7714-4fad-98a7-c7cb131a34a9,New Iberia (Texaco),29.996259,-91.807116,NIB6,,,,,,,America/Chicago,
ca203282-b173-4510-b9f9-bfae822053ca,Friona (Hernandez Restaurant),34.641574,-102.727737,FOF6,,,,,,,America/Chicago,
ca230541-47f6-4070-ba7c-8a8208fa6c0e,South Hill (E Atlantic St),36.717913,-78.118468,4SO,,,,,,,America/New_York,
ca75002e-3557-4dd1-bd39-88b5046248bf,Evanston (Chevron),41.264156,-110.95776,ENT6,,,,,,,America/Denver,
cab85ed2-e2f5-4d50-b779-65f4a7c0eae3,Portsmouth Bus Stop,43.078011,-70.758293,PTM6,,,,,,,America/New_York,
cadfca31-eff9-4186-a439-a712c2aed5a9,Melbourne (RaceTrac),28.188628,-80.672698,MBN6,,,,,,,America/New_York,
cbaa0059-1ddd-45c5-8d47-2570d5d5b978,Orlando (The Florida Mall),28.446548,-81.399686,4OF,,,,,,,America/New_York,
cbdb10f3-54ce-4f69-b745-cb18ecb3ed70,Westampton Academy Park & Ride,40.03343,-74.81897,MAR6,,,,,,,America/New_York,
cd3f50fe-0f9f-41d0-ad74-ae84d5e16791,Belton,31.05228,-97.459033,BLT6,,,,,,,America/Chicago,
cd50762d-4b91-474b-bb63-508ea7b6bc8f,Aiken,33.579786,-81.720165,AKA6,,,,,,,America/New_York,
cd63ad2d-c640-4c79-8bf2-d3f42cf2547d,New York (Hudson Yards),40.756244,-74.003187,6NYY,,,,,,,America/New_York,
cd69364c-3896-4ebb-ac91-5fd6098ab3dc,Sunnyside (The Outpost),46.309032,-119.97944,SNS6,,,,,,,America/Los_Angeles,
cd9e4a67-2944-4b76-b3e2-be39b27ed825,Hayward Bus Station,37.670488,-122.087317,UHW,,,,,,,America/Los_Angeles,
cdca60c1-33f9-41a0-835c-359432152593,Waubaushene,44.749084,-79.707127,7WN,,,,,,,America/Toronto,
ce609786-447b-4909-90f1-ed9e3ef002ef,Sylacauga (Allen Oil),33.16595,-86.277582,SAS6,,,,,,,America/Chicago,
ce768390-18df-4063-91f6-91add283687d,Jupiter (Jupiter Shell),26.933679,-80.140039,JIP6,,,,,,,America/New_York,
ce99a1b7-64a2-446b-bc68-e484f3ae8760,Santa Ana Bus Stop,33.751076,-117.856349,SAN6,,,,,,,America/Los_Angeles,
ceb2b406-3688-48f5-b53c-2e65699d332a,Kanata,45.308574,-75.916333,7KT,,,,,,,America/Toronto,
cee8662c-7162-4c8e-ada1-e8b65cb4d92c,Fleming Short Cut (Texaco),31.86588,-81.4379,HEL6,,,,,,,America/New_York,
cf2b18fe-5aee-454e-9773-cd755bc62135,Flint (Miller Rd),42.989573,-83.737003,5FI,,,,,,,America/New_York,
cf302e38-2b64-41e7-9569-97a109bcf6ef,Wichita Falls Travel Center,33.915995,-98.49573,WTF6,,,,,,,America/Chicago,
cf42286f-1747-4338-8c2f-c926048d16cb,Vero Beach (Sunoco),27.640338,-80.500453,VRO6,,,,,,,America/New_York,
cf749715-93fe-4dc0-8762-7ad2a1cf8ff4,Oakland (West Oakland Bart Station),37.805162,-122.294484,OAK,,,,,,,America/Los_Angeles,
d00a079b-2c81-4c37-85bf-3f7308f2b4ff,Kissimmee,28.345392,-81.364732,KSM6,,,,,,,America/New_York,
d02614f9-c2f7-454f-9f84-f8dc08e7e496,Dover (7-Eleven),39.178256,-75.5272,DOV6,,,,,,,America/New_York,
d04e2e4d-34ef-454c-837f-666cf2b63f08,Henderson (Galleria at Sunset),36.066199,-115.042547,UHN,,,,,,,America/Los_Angeles,
d0d6e3e6-400c-4002-a746-c8c9360ab516,Dixon Reagan Transit Center,41.811724,-89.46713,DIX6,,,,,,,America/Chicago,
d1abe9bc-7c72-4e46-b553-1d65f9aa7027,Eagle Pass (Stripes),28.719484,-100.47718,EPT6,,,,,,,America/Chicago,
d1b75fce-9b8c-4b87-9f15-3989d15f48b9,Edgewood Bus Stop,39.434803,-76.320396,EED6,,,,,,,America/New_York,
d200897e-d57d-4ab4-b818-4d1097e7db64,San Diego Greyhound Bus Stop,32.754163,-117.198698,SDO6,,,,,,,America/Los_Angeles,
d2b82783-ae20-4e51-bde4-14bc1f498dc4,"Boyce, LA",31.365819,-92.586833,BOY6,,,,,,,America/Chicago,
d3470c22-f12b-4553-bff6-a4003895558a,Pittsburgh Intermodal Station,40.44469,-79.992859,PGH6,,,,,,,America/New_York,
d3acc9d6-cc18-4512-abe6-635e698c5281,Montreal (Gare d'autocars de Montreal),45.516887,-73.563385,MTL6,,,,,,,America/Toronto,
d3cc4363-9582-41c2-9d4f-d877fd19a173,Angleton (Shell),29.264406,-95.449877,AGT6,,,,,,,America/Chicago,
d3fe1a76-8aa7-43b3-ae72-d29ca1601bd7,Idaho Springs Bus Stop,39.741729,-105.519297,IHP6,,,,,,,America/Denver,
d404ab69-8e81-42a5-bab8-b09ce4a5bc36,Merrillville (Southlake Mall),41.469067,-87.315089,MRLL,,,,,,,America/Chicago,
d40bf999-2df5-4b8b-a73d-3f31512e0059,Brownfield (Chisum Travel),33.190343,-102.27381,BWR6,,,,,,,America/Chicago,
d42f8c40-c275-460d-87e1-e95bc8f91a25,White Marsh Park N Ride,39.3775,-76.4615,WMH6,,,,,,,America/New_York,
d66ff6ec-3e78-4d55-be80-05c303d33105,San Bernardino Depot,34.104141,-117.31222,SBN6,,,,,,,America/Los_Angeles,
d6831e42-8bcf-45b4-8631-dd92177f90dd,Ayer MA,42.559313,-71.589639,DVN6,,,,,,,America/New_York,
d69b6abe-24b4-456e-bd7f-a064aedf0040,Graham (DK Convenience Station),33.10709,-98.57899,NRE6,,,,,,,America/Chicago,
d72ec373-9f58-4812-ad3e-98c8562453b6,Hondo (Hondo Shell),29.347233,-99.142021,HDO6,,,,,,,America/Chicago,
d757249d-b2e7-486b-84a1-2d6af0a474a2,Matamoros(Hotel Los Lirios),25.869884,-97.499435,MTX6,,,,,,,America/Matamoros,
d76aa253-0e33-4305-ac65-20ec026cf9a7,Tarboro Bus Stop,35.899706,-77.562547,TBB6,,,,,,,America/New_York,
d7afaf8d-1998-489e-bd04-1a3b4d110020,Kingston (Queen´s University),44.227882,-76.496771,7KQ,,,,,,,America/Toronto,
d7ca5f18-1430-4c6e-8fd7-7509188a9d3b,Spokane Station,47.6564,-117.414954,SPO6,,,,,,,America/Los_Angeles,
d7d5326e-3940-4752-b92c-280b1976ea78,Aransas Pass (Stripes),27.910748,-97.142921,ARP6,,,,,,,America/Chicago,
d810f7f3-81bd-4617-ade2-2d2cc74289a3,Green Bay Transit Center,44.51727,-88.002777,GRB6,,,,,,,America/Chicago,
d8616d31-f941-4869-a801-107cccb2f9fd,Albany (BP One Leaf),31.580747,-84.114484,ALY6,,,,,,,America/New_York,
d867c0ac-dc59-432f-ad86-c18b94ee30a0,Tulsa Bus Station,36.15392,-95.986744,TUL6,,,,,,,America/Chicago,
d8b4b607-9d67-48a4-a3af-e1a02527db44,Wichita Falls Sheppard Bus Stop,33.96491,-98.51348,SHA6,,,,,,,America/Chicago,
d90922ce-2946-4876-830c-d6b30b2f5da4,Milwaukee Mitchell Airport,42.947282,-87.902927,5MK,,,,,,,America/Chicago,
d927f932-7bab-4f64-a0d3-47248f10e369,Winter Haven Transportation Center,28.027198,-81.732008,WTH6,,,,,,,America/New_York,
d935a5be-b224-489d-b826-d60a6fc4530a,Forest City (OHM Food Mart),35.32165,-81.85984,FRE6,,,,,,,America/New_York,
d946e8cc-36c3-4b11-a12f-85a0d003fdca,Queens Village (7-11),40.72981,-73.745228,QES6,,,,,,,America/New_York,
d989f884-acc5-4be3-9298-8e7b9ae2e069,Regina,50.445912,-104.54953,7RG,,,,,,,America/Regina,
d9d1ac0b-b631-45bf-a424-1635fef66663,Elizabeth City,36.275004,-76.208698,EZB6,,,,,,,America/New_York,
d9d4740d-5065-489f-84bb-13f01a4df16b,Mount Vernon (McDonalds),38.314022,-88.956123,MTV6,,,,,,,America/Chicago,
d9e99e90-943d-4b0a-b210-3920d3e5327d,Pensacola Airport,30.47676,-87.193854,PNC6,,,,,,,America/Chicago,
d9eada8c-22c4-425c-be5d-cc21a2132458,Brantford,43.170223,-80.215419,7BR,,,,,,,America/Toronto,
da027ae7-f5da-4f1d-9a39-9f663613ee96,Parry Sound,45.344812,-80.008781,7PR,,,,,,,America/Toronto,
da310228-a33b-407c-a9ec-5f8dc2263701,Junction (Short Stop),30.49584,-99.7786,JCT6,,,,,,,America/Chicago,
da4142cc-6f13-4e0b-9d4b-f1df1d656624,Atlanta Downtown (Civic Center),33.76667,-84.387502,4AT,,,,,,,America/New_York,
daa4c43f-1db5-4dab-bd2b-57ed621766f6,Modesto Bus Stop,37.63966,-121.002083,MDO6,,,,,,,America/Los_Angeles,
daab3964-ddcb-426d-9230-034e4a947d54,Rawlins (Travel Centers Of America),41.776965,-107.22365,RLL6,,,,,,,America/Denver,
dabb4d07-9be2-483b-9c1b-1d76b1734e11,Morgan City (Municipal Auditorium),29.694808,-91.187659,MGC6,,,,,,,America/Chicago,
db4f9fb6-38af-4003-ad47-16f722f5e279,Wallace (Jif-A-Mart),34.742301,-77.994809,WLC6,,,,,,,America/New_York,
db689702-53b7-4f72-92ba-1bc767b861e1,Comfort (Chevron),29.98266,-98.904854,CFR6,,,,,,,America/Chicago,
db86bc0b-d3af-4163-a30a-6ece57770dbe,Colfax (Standlock Bottle Shop),39.095951,-120.94804,CFX6,,,,,,,America/Los_Angeles,
dbae4f78-c80e-47f9-b10e-b13c750fed8f,White Plains Bus Station,41.033867,-73.774277,WHP6,,,,,,,America/New_York,
dc89ba6b-6de4-447d-9387-4a7381d545f6,Boston Manchester Airport,42.927815,-71.437551,MVT6,,,,,,,America/New_York,
dcc7d1ed-bbb1-4e84-9250-a52f3c977a7e,Chiefland (Jiffy Food Mart),29.496923,-82.869125,CEN6,,,,,,,America/New_York,
dd331ecf-7550-42e5-ad3b-7e6f549ecbb4,Rensselaer Bus Stop,40.936737,-87.152712,RSS6,,,,,,,America/Chicago,
dd5499f6-f109-433f-aead-b16dc7fe0b7c,Ridgewood NJ (Northbound),40.991196,-74.09535,RDW6,,,,,,,America/New_York,
dd95bd35-af41-4582-8dd6-c3687f05f9d0,Atmore,31.02496,-87.491547,ATR6,,,,,,,America/Chicago,
ddf85f3f-f4ac-45e7-b439-1c31ed733ce1,New York Midtown (31st St & 8th Ave),40.750309,-73.995269,6MT,,,,,,,America/New_York,
de04f726-2b0d-4c92-9333-a9f0926e0389,Lexington Bus Stop,38.072357,-84.478905,LXD6,,,,,,,America/New_York,
de3e90c2-abad-4730-ad34-376d1b74bcf5,Wilson Bus Stop,35.723087,-77.908813,WSN6,,,,,,,America/New_York,
de895d8d-4aa2-45eb-9f72-c994ef772f1c,The Dalles (Transit Facility),45.62584,-121.21773,TDD6,,,,,,,America/Los_Angeles,
debf1668-0335-475c-8524-62dbd12e27dc,Grinnell,41.700228,-92.726377,GIA6,,,,,,,America/Chicago,
df090605-fe1a-4c3f-8a3d-12942af0572f,Fredericksburg Bus Stop,38.301836,-77.481421,FBG6,,,,,,,America/New_York,
df1ffaf6-26c3-41da-83ac-3602113796ec,Ashland Bus Station,38.4809,-82.639496,ASH6,,,,,,,America/New_York,
df8b6347-8d72-42a1-ad65-1f44dd1349a2,Gainesville (Shell),34.282546,-83.800615,GAS6,,,,,,,America/New_York,
dfc1cdb9-7f66-4ca2-84ab-be6e5a0a6e54,Batavia (48 Express),43.017223,-78.194267,BTA6,,,,,,,America/New_York,
dfcd167d-1d2c-46df-b8b1-ce158b46c894,Claresholm,50.019605,-113.57814,7CS,,,,,,,America/Edmonton,
e15a82a9-084d-45f8-aaeb-1e461d9d91d9,Ft Worth Bus Station,32.75304,-97.32667,FWO6,,,,,,,America/Chicago,
e1b8d056-9293-48a5-83f4-df8d7fee246b,Mesa Bus Stop,33.388564,-111.839113,MES6,,,,,,,America/Phoenix,
e204bb66-8ab9-4437-8d0d-2b603cdf0c43,New York Port Authority,40.75695,-73.9905,NYD6,,,,,,,America/New_York,
e2ac2b53-e2c6-445f-aa24-9754d353dabf,Charlotte (Freedom Dr/Ashley Rd),35.245171,-80.895279,4HR,,,,,,,America/New_York,
e2bcfd8d-c071-4dfa-98e5-77dee07c2641,Grants (Shell),35.12797,-107.828268,GNS6,,,,,,,America/Denver,
e2c779e6-0c24-45af-89df-fb02abadb91e,Upton,37.457895,-85.880586,UPT6,,,,,,,America/New_York,
e2f12464-b155-454e-968c-cf5f79d31e53,Medicine Hat (Transit Terminal),50.039383,-110.674555,7EH,,,,,,,America/Edmonton,
e3353c0b-d6ea-4993-be85-85dccb3840bc,Longview Bus Station,32.493876,-94.728351,LGW6,,,,,,,America/Chicago,
e356261e-2b25-4acc-b042-64b3502318b2,Stockton (Central de Autobuses),37.948676,-121.289516,SKN6,,,,,,,America/Los_Angeles,
e402bf7c-43f1-4099-989e-a65bc6cb8a1a,Waterville (J & S Oil Co),44.54343,-69.6714,WAV6,,,,,,,America/New_York,
e419039e-fa95-4484-8b64-80aed2e5e8fc,Northampton (Northampton Market),42.315544,-72.631124,NHM6,,,,,,,America/New_York,
e4fec99a-a91b-4285-a0aa-e1145a281fdc,Norristown (Park & Ride),40.082827,-75.387001,KOP6,,,,,,,America/New_York,
e58b0d7e-a155-41d1-b315-85ef7883ff97,Sturbridge (New England Truck Stop),42.117532,-72.062529,STD6,,,,,,,America/New_York,
e5be1555-2331-465f-9c0c-afda098b3afb,Globe (Good 2 Go),33.395853,-110.769671,GBM6,,,,,,,America/Phoenix,
e5d0cb4b-bb2c-4365-b660-030c098f3e37,Los Angeles (Laurel Canyon/Rinaldi - San Fernando),34.280876,-118.45452,0RN,,,,,,,America/Los_Angeles,
e5f61ed6-751f-4111-8487-ec1881286bd5,Del Rio (VVBHC),29.350403,-100.911629,DRC6,,,,,,,America/Chicago,
e610e851-1daf-4fc5-a236-0cb200f82fba,"Albany Bus Terminal, NY",42.645916,-73.75135,ALB6,,,,,,,America/New_York,
e65ea33a-215d-4182-a42e-4eca4da6cbf0,San Diego (Old Town-FlixBus),32.754186,-117.198717,UOT,,,,,,,America/Los_Angeles,
e6695570-9ed5-4027-bdcc-a56777713b2d,Glens Falls Bus Stop,43.313007,-73.644057,GFL6,,,,,,,America/New_York,
e6729401-2805-4f3a-93d4-dabe4fb39196,Dayton Trotwood Bus Station,39.817579,-84.278319,DAY6,,,,,,,America/New_York,
e7016cff-3d3f-4d91-ac0a-b62495bef7a6,Sparks Transit Center,39.534637,-119.761756,RNO6,,,,,,,America/Los_Angeles,
e75a45c0-17bd-4dbb-a7c7-2c66491e582d,Hidalgo International Bridge,26.09913,-98.26922,PNH6,,,,,,,America/Chicago,
e76179d1-3be4-47cc-ab6b-ad15500d248c,Tupelo (Brothers Quick Stop),34.235702,-88.688421,TUP6,,,,,,,America/Chicago,
e7654862-221a-4bc4-85e2-de959a02599c,Prairie View (Mini Mart),30.07305,-95.9923,PIR6,,,,,,,America/Chicago,
e7dd5c96-acab-4323-ba02-0b684fc21d33,Tampa Bus Station,27.95586,-82.45841,TPA6,,,,,,,America/New_York,
e80ba957-91be-44cc-91ac-0bb14cf79ab4,Mobile Bus Station,30.670506,-88.101166,MOB6,,,,,,,America/Chicago,
e95af774-8d09-43e5-9e61-699174ec4ae3,Collingwood Main Terminal,44.500289,-80.21846,7CO,,,,,,,America/Toronto,
e9cf5def-2b07-45f7-950f-b869931707e1,Williamsburg Bus Stop,37.27639,-76.70861,WBG6,,,,,,,America/New_York,
e9e9f4df-046a-4cc8-a48f-7af8ce9d88d6,Las Vegas Downtown (1st St),36.164518,-115.149671,ULV,,,,,,,America/Los_Angeles,
ea2c7b54-03a6-4aea-891a-c7497a60fbd9,Ahoskie (Ahoskie Bus Stop),36.286636,-76.988106,ASS6,,,,,,,America/New_York,
eb0d8963-c38d-4470-80cd-cda8753c2901,Orlando Bus Station,28.547819,-81.412781,ORL6,,,,,,,America/New_York,
eb7000c4-992a-4b42-b9c5-d2e5f9f3b807,Columbus (E Rich St),39.957899,-82.996842,5CO,,,,,,,America/New_York,
ebac7201-9500-49ce-b7b8-4f6bc906de72,Kingman (North),35.192622,-114.069886,UKN,,,,,,,America/Phoenix,
ebf2f8e4-231f-423c-8bfb-5f130c100298,Yorkdale (TTC Passenger Pick-up),43.7257,-79.44779,7TY,,,,,,,America/Toronto,
ec23f667-29ab-4529-8e01-e222e41d30cc,Tomah (McDonald's),44.019642,-90.504166,TOM6,,,,,,,America/Chicago,
ec647204-b2e0-415c-a290-d2cfe94a8f57,Juarez(City Express),31.6877,-106.40595,JUA6,,,,,,,America/Ciudad_Juarez,
ec7c3958-3922-4aa3-9c90-2500ecf0d081,Cordoba (Flix Ave 11 y Calle 5),18.890046,-96.936471,CVB8,,,,,,,America/Mexico_City,
ec8b7a43-cd21-4bc8-aa8a-acd3169f54ac,Perry (Fast Freddy's),30.051898,-83.551586,PRP6,,,,,,,America/New_York,
eca4c3be-94b9-4915-b417-7031f3d61199,Fort Macleod,49.724826,-113.396153,7FM,,,,,,,America/Edmonton,
ece9e7e2-8dd3-4d4b-b84c-c145ff88646e,Savannah Bus Station,32.07899,-81.099372,SAV6,,,,,,,America/New_York,
edd79069-19cc-4d15-918f-8d48f94b4829,Appleton Transit Center,44.263409,-88.405525,XWI6,,,,,,,America/Chicago,
eddba24c-c02e-4f6d-a157-ea47abafa258,Edenton Bus Stop,36.074751,-76.598418,ENN6,,,,,,,America/New_York,
edeac1b8-94ef-4cc3-8f48-862f834025b7,Waxahachie (Exxon),32.373791,-96.864235,WAH6,,,,,,,America/Chicago,
edef9c30-9aa2-4279-ba5e-c6479b1bf937,San Ysidro Arrival: USA-Mexico Border,32.545,-117.029175,USY,,,,,,,America/Los_Angeles,
edf9b0e3-3786-491a-92ad-7ffa5feb2846,Valdosta (Citgo),30.820809,-83.312504,VAL6,,,,,,,America/New_York,
ee01d62e-2819-4e07-b1d9-bf8ea726327a,Cincinnati Bus Station,39.21214,-84.45903,CIN,,,,,,,America/New_York,
ee87ddfe-53c2-44e3-a44f-bff63f1f34fb,Sacramento (Old Sacramento 2nd St/J St),38.583655,-121.503862,0SI,,,,,,,America/Los_Angeles,
eedabe94-a052-4815-9544-70f7d6d9326b,Seminole (Anderson Welding),32.712525,-102.643896,SMO6,,,,,,,America/Chicago,
f0220601-d819-4965-bc21-68d2b0141312,Worcester Union Station,42.261403,-71.794905,WOR6,,,,,,,America/New_York,
